customeraccount,sexo,cp,ciudad,estado,cve_prom,cve_suc,cve_zona,edo_civil,CVE_SUC,NOM_SUC,CVE_ZONA,NOM_ZONA,CVE_COORD,NOM_COORD,latitud,longitud
1-294800-UH,M,27148,TORREON,COAHUILA DE ZARAGOZA,W4248,424,9932.0,S,424,SUC. LOS ANGELES,9932,D DIV RB NORTE,8727,N09 - TORREON,25.5514883,-103.4506568
1-825939-SH,F,44100,GUADALAJARA,JALISCO,W1048,104,6150.0,C,104,SUC. PROVINCIAL,6150,D DIV RB OCCIDENTE,6056,O02 - GUADALAJARA,20.674935,-103.3474109
1-406791-GJ,M,47170,SAN JULIAN,JALISCO,W1651,165,6150.0,C,165,SUC. SAN JULIAN,6150,D DIV RB OCCIDENTE,6053,O05 - ALTOS JALISCO,21.0086847,-102.1831758
1-674845-PX,F,28018,COLIMA,COLIMA,X9611,1961,6150.0,C,1961,SUC. SEVILLA DEL RIO,6150,D DIV RB OCCIDENTE,6044,O06 - COLIMA,19.2626442,-103.6936197
1-713110-DZ,M,72570,PUEBLA,PUEBLA,Z0323,3032,9933.0,C,3032,SUC. REFORMA CENTRO,9933,D DIV RB  SUR,5223,S02 - PUEBLA,19.008832,-98.1929188
1-938226-CV,F,72430,PUEBLA,PUEBLA,Z0323,3032,9933.0,S,3032,SUC. REFORMA CENTRO,9933,D DIV RB  SUR,5223,S02 - PUEBLA,19.024271,-98.2186344
1-557858-LT,M,72420,PUEBLA,PUEBLA,V0391,1108,9933.0,C,1108,SUC. HUEXOTITLA,9933,D DIV RB  SUR,5223,S02 - PUEBLA,19.0301911,-98.2106838
1-511690-VM,F,97000,MERIDA,YUCATAN,W3752,375,9610.0,C,375,SUC.SANTIAGO,9610,D DIV RB PENINSULAR,9308,P05 - PENINSULA,20.9688726,-89.6234251
1-487680-FH,M,54020,TLALNEPANTLA,MEXICO,V0314,3557,9934.0,C,3557,SUC. REFORMA PALMERA,9934,D DIV RB METRO NORTE,9764,MN02 - REFORMA,19.5631434,-99.20784
1-109093-YR,M,48900,AUTLAN DE NAVARRO,JALISCO,V0324,159,6150.0,C,159,SUC. AUTLAN SUC. ASIG.III,6150,D DIV RB OCCIDENTE,6044,O06 - COLIMA,19.7676272,-104.3727414
1-243546-R\,F,44630,GUADALAJARA,JALISCO,V0112,714,6150.0,C,714,SUC. CONCENTRO,6150,D DIV RB OCCIDENTE,6135,O01 - GUADALAJARA,20.6986377,-103.3755846
1-956848-CN,M,51950,TONATICO,MEXICO,W0018,1,4831.0,S,1,SUC. JUAREZ.,4831,D DIV RB METRO SUR,5202,MS02 - CENTRO,18.8037819,-99.6675231
1-174414-Q\,M,63507,TEPIC,NAYARIT,W1718,171,6150.0,C,171,SUC. TEPIC CENTRO,6150,D DIV RB OCCIDENTE,6050,O04 -GUADALAJARA,21.5597619,-104.9740181
1-232057-IA,M,82120,MAZATLAN,SINALOA,W2043,204,6777.0,C,204,SUC. MAZATLAN CARRASCO,6777,D DIV  RB NOROESTE,7218,NO08 - SINALOA NORTE,23.2445495,-106.4262632
1-890173-YF,M,48200,TALPA DE ALLENDE,JALISCO,W1638,163,6150.0,C,163,SUC. PUERTO VALLARTA,6150,D DIV RB OCCIDENTE,6050,O04 -GUADALAJARA,20.3809444,-104.824102
1-722597-XK,F,62270,CUERNAVACA,MORELOS,W0861,86,4831.0,C,86,SUC. CUERNAVACA LA SELVA,4831,D DIV RB METRO SUR,5814,MS06 - MORELOS,18.9377442,-99.2351681
1-772605-ZI,F,15850,VENUSTIANO CARRANZA,CIUDAD DE MEXICO,W5422,542,4831.0,S,542,SUC. BOUTURINI,4831,D DIV RB METRO SUR,5202,MS02 - CENTRO,19.4081456,-99.1182508
1-592983-LR,M,83250,HERMOSILLO,SONORA,W9271,927,6777.0,C,927,SUC. CENTENARIO,6777,D DIV  RB NOROESTE,7009,NO04 - HERMOSILLO,29.0781313,-110.9764875
1-674839-DX,M,47270,ENCARNACION DE DIAZ,JALISCO,W1563,156,9931.0,C,156,SUC. ENCARNACION,9931,D DIV RB CENTRO,6204,C01 - LEON,21.5320748,-102.2376678
1-355893-AC,F,28870,MANZANILLO,COLIMA,W1528,152,6150.0,C,152,SUC. MANZANILLO,6150,D DIV RB OCCIDENTE,6044,O06 - COLIMA,19.1161592,-104.2670524
1-519616-TA,F,92870,TUXPAN,VERACRUZ DE IGNACIO DE LA LLAVE,V0292,342,9933.0,S,342,SUC. TUXPAN,9933,D DIV RB  SUR,8611,S06 - POZA RICA,20.9461142,-97.3859553
1-859862-LK,F,72410,PUEBLA,PUEBLA,W3148,314,9933.0,C,314,SUC.LOS ANGELES,9933,D DIV RB  SUR,5218,S01 - PUEBLA,19.0379141,-98.215767
1-218462-YX,F,66236,SAN PEDRO GARZA GARCIA,NUEVO LEON,X6348,1634,9932.0,C,1634,SUC. MALL SAN PEDRO,9932,D DIV RB NORTE,8003,N02 - MONTERREY 2,25.6560521,-100.3909658
1-230523-XY,F,1710,ALVARO OBREGON,CIUDAD DE MEXICO,W5848,584,4831.0,D,584,SUC. PLAZA LAS AGUILAS,4831,D DIV RB METRO SUR,5230,MS01 - ALTAVISTA,19.3601013,-99.2068357
1-409844-PP,F,91030,XALAPA,VERACRUZ DE IGNACIO DE LA LLAVE,W3344,334,9933.0,D,334,SUC. XALAPA CRYSTAL,9933,D DIV RB  SUR,8471,S04 - XALAPA,19.5414993,-96.9251385
1-478833-E[,M,47170,SAN JULIAN,JALISCO,W1651,165,6150.0,C,165,SUC. SAN JULIAN,6150,D DIV RB OCCIDENTE,6053,O05 - ALTOS JALISCO,21.0086847,-102.1831758
1-515907-NB,F,14300,TLALPAN,CIUDAD DE MEXICO,V0025,643,4831.0,D,643,SUC. GALERIAS COAPA,4831,D DIV RB METRO SUR,5215,MS07 - XOCHIMILCO,19.2994003,-99.1257553
1-358104-[G,M,24154,CARMEN,CAMPECHE,V0546,1865,9610.0,C,1865,SUC. CUAUHTEMOC,9610,D DIV RB PENINSULAR,9308,P05 - PENINSULA,18.6555266,-91.7966644
1-461242-T\,M,73160,HUAUCHINANGO,PUEBLA,V0553,327,9933.0,C,327,SUC. HUAUCHINANGO PUEBLA,9933,D DIV RB  SUR,8611,S06 - POZA RICA,20.1762623,-97.9945056
1-668688-VP,F,2780,AZCAPOTZALCO,CIUDAD DE MEXICO,V0056,50,9934.0,S,50,SUC. AZCAPOTZALCO,9934,D DIV RB METRO NORTE,5206,MN06 - LINDAVISTA,19.4744237,-99.1966987
1-744702-IR,M,2670,AZCAPOTZALCO,CIUDAD DE MEXICO,V0320,433,9934.0,C,433,SUC.CUITLAHUAC VALLEJO,9934,D DIV RB METRO NORTE,5206,MN06 - LINDAVISTA,19.475622,-99.163802
1-636980-HV,F,3100,BENITO JUAREZ,CIUDAD DE MEXICO,V0090,67,4831.0,C,67,SUC. COAPLAZA,4831,D DIV RB METRO SUR,5215,MS07 - XOCHIMILCO,19.3845688,-99.1698933
1-518163-[F,M,1790,ALVARO OBREGON,CIUDAD DE MEXICO,W1011,101,6777.0,C,101,SUC. TIJUANA,6777,D DIV  RB NOROESTE,7489,NO02 - PACIFICO NORTE,19.3436777,-99.2054645
1-211493-VF,M,45237,ZAPOPAN,JALISCO,Z0154,3015,4831.0,C,3015,SUC. GALERIAS INSURGENTES,4831,D DIV RB METRO SUR,5212,MS08 - COYOACAN,20.6128374,-103.4639489
1-770431-GW,M,37297,LEON,GUANAJUATO,X8923,1892,9931.0,C,1892,SUC. TORRES LANDA,9931,D DIV RB CENTRO,6204,C01 - LEON,21.1089636,-101.6128392
1-581454-GY,M,52929,ATIZAPAN DE ZARAGOZA,MEXICO,W0684,68,9934.0,S,68,SUC. VILLAS DE LA HACIENDA,9934,D DIV RB METRO NORTE,5238,MN07 - CUAUTITLAN,19.6053079,-99.2277908
1-712974-CX,F,21280,MEXICALI,BAJA CALIFORNIA,W1493,149,6777.0,C,149,SUC. CENTRO CIVICO,6777,D DIV  RB NOROESTE,7611,NO03 - MEXICALI,32.6318402,-115.4494754
1-783140-GU,M,77533,BENITO JUAREZ,QUINTANA ROO,W0422,42,4831.0,C,42,SUC. AEROPUERTO SALA A,4831,D DIV RB METRO SUR,5226,MS10 - AEROPUERTO,21.1245118,-86.8362759
1-729111-W\,F,92840,TUXPAN,VERACRUZ DE IGNACIO DE LA LLAVE,W3423,342,9933.0,C,342,SUC. TUXPAN,9933,D DIV RB  SUR,8611,S06 - POZA RICA,20.9573062,-97.385863
1-744944-GL,M,28017,COLIMA,COLIMA,W1882,188,6150.0,V,188,SUC. SAN FRANCISCO COLIMA,6150,D DIV RB OCCIDENTE,6044,O06 - COLIMA,19.26084,-103.7175839
1-445188-QW,M,59650,ZAMORA,MICHOACAN DE OCAMPO,W9234,923,6150.0,C,923,SUC. JARDINADAS,6150,D DIV RB OCCIDENTE,6526,O07 - MORELIA,19.991432,-102.2945266
1-201230-[X,F,28017,COLIMA,COLIMA,V0408,1961,6150.0,C,1961,SUC. SEVILLA DEL RIO,6150,D DIV RB OCCIDENTE,6044,O06 - COLIMA,19.26084,-103.7175839
1-610138-OF,M,48900,AUTLAN DE NAVARRO,JALISCO,V0324,159,6150.0,C,159,SUC. AUTLAN SUC. ASIG.III,6150,D DIV RB OCCIDENTE,6044,O06 - COLIMA,19.7676272,-104.3727414
1-822089-NQ,M,49700,SAN GABRIEL,JALISCO,W1662,166,6150.0,C,166,SUC. SAN GABRIEL,6150,D DIV RB OCCIDENTE,6044,O06 - COLIMA,19.747949,-103.7591639
1-908492-NW,F,44647,GUADALAJARA,JALISCO,V0399,3046,6150.0,V,3046,SUC. TERRANOVA,6150,D DIV RB OCCIDENTE,6049,O03 - GUADALAJARA,20.6938821,-103.385746
1-377594-VV,F,74585,CHIETLA,PUEBLA,W3195,319,9933.0,C,319,SUC. IZUCAR MATAMOROS,9933,D DIV RB  SUR,5218,S01 - PUEBLA,18.5108055,-98.6086898
1-468450-MG,M,22183,TIJUANA,BAJA CALIFORNIA,W1342,134,6777.0,C,134,SUC. JAUJA,6777,D DIV  RB NOROESTE,7402,NO01 - TIJUANA,32.4577344,-116.9606743
1-363817-KH,F,22224,TIJUANA,BAJA CALIFORNIA,V1041,452,6777.0,S,452,SUC. VILLAFONTANA,6777,D DIV  RB NOROESTE,7611,NO03 - MEXICALI,32.4642161,-116.911826
1-682159-FE,M,67320,SANTIAGO,NUEVO LEON,X0261,1026,9932.0,S,1026,SUC. EL CERCADO,9932,D DIV RB NORTE,8011,N04 - MONTERREY 4,25.4015267,-100.1284449
1-387568-[B,M,2060,AZCAPOTZALCO,CIUDAD DE MEXICO,W0502,50,9934.0,C,50,SUC. AZCAPOTZALCO,9934,D DIV RB METRO NORTE,5206,MN06 - LINDAVISTA,19.4750926,-99.1758649
1-664708-OW,M,45010,ZAPOPAN,JALISCO,W1009,100,6150.0,S,100,SUC. OFICINA CENTRAL GUADALAJA,6150,D DIV RB OCCIDENTE,6049,O03 - GUADALAJARA,20.6578316,-103.4446538
1-304939-MX,F,14110,TLALPAN,CIUDAD DE MEXICO,Z0161,3016,4831.0,C,3016,SUC. TORRE ZAFIRO,4831,D DIV RB METRO SUR,5214,MS05 - PEDREGAL,19.3007483,-99.2102078
1-209390-[Z,F,10100,LA MAGDALENA CONTRERAS,CIUDAD DE MEXICO,W0398,39,4831.0,S,39,SUC. SAN JERONIMO,4831,D DIV RB METRO SUR,5230,MS01 - ALTAVISTA,19.3365171,-99.2069108
1-699556-FK,M,10340,LA MAGDALENA CONTRERAS,CIUDAD DE MEXICO,X5744,1574,4831.0,C,1574,SUC. PLAZA LA MAGDALENA,4831,D DIV RB METRO SUR,5230,MS01 - ALTAVISTA,19.3215045,-99.2486881
1-615079-XK,M,14140,TLALPAN,CIUDAD DE MEXICO,V0506,3013,4831.0,C,3013,SUC. CENTRO COMERCIAL PERISUR,4831,D DIV RB METRO SUR,5214,MS05 - PEDREGAL,19.3074919,-99.2241609
1-117387-T\,M,2420,AZCAPOTZALCO,CIUDAD DE MEXICO,W5513,551,9934.0,S,551,SUC. TEZOZOMOC,9934,D DIV RB METRO NORTE,5206,MN06 - LINDAVISTA,19.4977597,-99.210904
1-726088-HA,M,78000,SAN LUIS POTOSI,SAN LUIS POTOSI,W2885,288,9931.0,S,288,SUC. CENTRO SLP,9931,D DIV RB CENTRO,6210,C05 - S.L.P,22.1516532,-100.974907
1-764537-[Y,M,78230,SAN LUIS POTOSI,SAN LUIS POTOSI,W2885,288,9931.0,C,288,SUC. CENTRO SLP,9931,D DIV RB CENTRO,6210,C05 - S.L.P,22.1534732,-100.9860146
1-712913-MS,M,24087,CAMPECHE,CAMPECHE,W3693,369,9610.0,U,369,SUC.CAMPECHE,9610,D DIV RB PENINSULAR,9308,P05 - PENINSULA,19.8496479,-90.4897282
1-300994-QD,M,66276,SAN PEDRO GARZA GARCIA,NUEVO LEON,W2532,253,9932.0,C,253,SUC. IND. NORTE,9932,D DIV RB NORTE,8150,N01 - MONTERREY 1,25.6433028,-100.3322124
1-822229-XU,F,76020,QUERETARO,QUERETARO,W2592,259,9931.0,S,259,SUC. EJERCITO,9931,D DIV RB CENTRO,6607,C03 - QUERETARO,20.597586,-100.3816715
1-424556-RD,M,79305,CIUDAD DEL MAIZ,SAN LUIS POTOSI,W2748,274,9931.0,C,274,SUC. CENTRO LEON,9931,D DIV RB CENTRO,6204,C01 - LEON,22.5227723,-99.3190884
1-353427-QR,M,52763,HUIXQUILUCAN,MEXICO,V8155,3026,9934.0,S,3026,SUC. LOMAS DE TECAMACHALCO,9934,D DIV RB METRO NORTE,5235,MN03 - SANTA FE,19.3877489,-99.2868362
1-587015-TD,M,16000,XOCHIMILCO,CIUDAD DE MEXICO,W0772,77,9934.0,S,77,SUC. NUEVO LEON,9934,D DIV RB METRO NORTE,5224,MN05 - CONDESA ROMA,19.2691576,-99.1047491
1-992240-OG,M,6300,CUAUHTEMOC,CIUDAD DE MEXICO,W0995,99,9934.0,C,99,SUC. TORRE HSBC,9934,D DIV RB METRO NORTE,9764,MN02 - REFORMA,19.4460135,-99.1435504
1-468592-PV,F,21225,MEXICALI,BAJA CALIFORNIA,W1462,146,6777.0,C,146,SUC. CD. MORELOS,6777,D DIV  RB NOROESTE,7611,NO03 - MEXICALI,32.6609256,-115.3913551
1-512963-KQ,M,47300,YAHUALICA DE GONZALEZ GAL,JALISCO,W1648,164,6150.0,S,164,SUC. YAHUALICA,6150,D DIV RB OCCIDENTE,6053,O05 - ALTOS JALISCO,21.1790507,-102.8851294
1-667166-QE,M,86780,JONUTA,TABASCO,W9813,981,9610.0,C,981,SUC. EMILIANO ZAPATA,9610,D DIV RB PENINSULAR,9000,P02 - TABASCO,18.0906635,-92.1374673
1-871410-AI,F,3020,BENITO JUAREZ,CIUDAD DE MEXICO,W6521,652,4831.0,C,652,SUC. MONTERREY,4831,D DIV RB METRO SUR,5231,MS03 - FELIX CUEVAS,19.3925149,-99.1579012
1-430132-XU,M,49600,ZAPOTILTIC,JALISCO,W1578,157,6150.0,C,157,SUC. ZAPOTILTIC,6150,D DIV RB OCCIDENTE,6044,O06 - COLIMA,19.6302845,-103.4234268
1-390577-F\,F,54140,TLALNEPANTLA DE BAZ,MEXICO,W0345,34,9934.0,D,34,SUC. VALLEJO,9934,D DIV RB METRO NORTE,5206,MN06 - LINDAVISTA,19.5352438,-99.1675487
1-119452-WQ,M,53240,NAUCALPAN,MEXICO,V0426,587,9934.0,C,587,SUC. JARDINES DE SAN MATEO,9934,D DIV RB METRO NORTE,5205,MN04 - SATELITE,19.4909534,-99.2511567
1-509006-XJ,M,11910,MIGUEL HIDALGO,CIUDAD DE MEXICO,V0519,494,9934.0,C,494,SUC.CTRO.COMERCIAL SANTACRUZ,9934,D DIV RB METRO NORTE,5205,MN04 - SATELITE,19.3930888,-99.2438815
1-165794-HA,F,42060,PACHUCA DE SOTO,HIDALGO,X9773,1977,9934.0,S,1977,SUC. ZONA PLATEADA PACHUCA,9934,D DIV RB CENTRO,5908,C06 - PACHUCA,20.1202233,-98.7438756
1-732925-KG,F,14410,TLALPAN,CIUDAD DE MEXICO,W0192,19,9934.0,S,19,SUC. POLANCO,9934,D DIV RB METRO NORTE,9764,MN02 - REFORMA,19.283512,-99.181925
1-638759-[X,F,90500,HUAMANTLA,TLAXCALA,W3283,328,9933.0,C,328,SUC. HUAMANTLA,9933,D DIV RB  SUR,5236,S03 - PUEBLA-TLAXCALA,19.3136011,-97.9221877
1-116353-PO,M,55055,ECATEPEC DE MORELOS,MEXICO,W0278,27,9934.0,S,27,SUC. VILLA,9934,D DIV RB METRO NORTE,5206,MN06 - LINDAVISTA,19.6113207,-99.0166891
1-225641-H\,M,64834,MONTERREY,NUEVO LEON,W2523,252,9932.0,C,252,SUC. PLAZA FIESTA ANAHUAC,9932,D DIV RB NORTE,8039,N03 - MONTERREY 3,25.6506258,-100.270734
1-702869-YR,M,1710,ALVARO OBREGON,CIUDAD DE MEXICO,V0052,310,9933.0,D,310,SUC. LA PAZ,9933,D DIV RB  SUR,5218,S01 - PUEBLA,19.3601013,-99.2068357
1-544851-IK,F,21850,MEXICALI,BAJA CALIFORNIA,Z0282,3028,9934.0,C,3028,SUC. PASEO TOLLOCAN,9934,D DIV RB METRO NORTE,5207,MN01 - TOLUCA,31.0267298,-114.8407098
1-993916-NW,M,8500,IZTACALCO,CIUDAD DE MEXICO,W0091,9,4831.0,S,9,SUC. TACUBAYA,4831,D DIV RB METRO SUR,5231,MS03 - FELIX CUEVAS,19.402507,-99.0687326
1-935082-WQ,F,3650,BENITO JUAREZ,CIUDAD DE MEXICO,W0443,44,4831.0,C,44,SUC. INSURGENTES NAPOLES,4831,D DIV RB METRO SUR,5231,MS03 - FELIX CUEVAS,19.3764431,-99.156702
1-949398-KB,M,83249,HERMOSILLO,SONORA,V0470,180,6777.0,S,180,SUC. CENTRO OBREGON,6777,D DIV  RB NOROESTE,7101,NO05 - CD OBREGON,29.0879151,-111.0006896
1-748905-UQ,F,47600,TEPATITLAN DE MORELOS,JALISCO,W1583,158,6150.0,C,158,SUC. TEPATITLAN,6150,D DIV RB OCCIDENTE,6053,O05 - ALTOS JALISCO,20.8171289,-102.7618161
1-716994-KH,M,48900,AUTLAN DE NAVARRO,JALISCO,V0324,161,6150.0,C,161,SUC. EL GRULLO,6150,D DIV RB OCCIDENTE,6044,O06 - COLIMA,19.7676272,-104.3727414
1-895627-RK,F,48760,TONAYA,JALISCO,W1673,167,6150.0,C,167,SUC. TONAYA,6150,D DIV RB OCCIDENTE,6044,O06 - COLIMA,19.7834143,-103.9679376
1-273351-YL,M,22244,TIJUANA,BAJA CALIFORNIA,W2093,209,6777.0,C,209,SUC. FUTURAMA,6777,D DIV  RB NOROESTE,7815,NO12 - CD JUAREZ,32.4577827,-116.8880459
1-972566-GW,M,39850,ACAPULCO DE JUAREZ,GUERRERO,V0099,75,9933.0,C,75,SUC.ACAPULCO COSTERA,9933,D DIV RB  SUR,5225,S08 - GUERRERO,16.8506859,-99.8492784
1-555687-UV,F,15900,VENUSTIANO CARRANZA,CIUDAD DE MEXICO,V0046,599,4831.0,S,599,SUC. FRAY SERVANDO,4831,D DIV RB METRO SUR,5226,MS10 - AEROPUERTO,19.416667,-99.113889
1-643486-AL,M,37299,LEON,GUANAJUATO,W4118,411,9931.0,C,411,SUC. JULIAN DE OBREGON,9931,D DIV RB CENTRO,6204,C01 - LEON,21.1138462,-101.5996801
1-685915-OU,M,29057,TUXTLA GUTIERREZ,CHIAPAS,V0286,401,9610.0,C,401,SUC.PLAZA CRYSTAL,9610,D DIV RB PENINSULAR,9105,P03 - CHIAPAS,16.7509784,-93.1758672
1-226539-SP,F,74800,TEHUITZINGO,PUEBLA,W3191,319,9933.0,S,319,SUC. IZUCAR MATAMOROS,9933,D DIV RB  SUR,5218,S01 - PUEBLA,18.3328994,-98.2771664
1-417120-KA,F,11830,MIGUEL HIDALGO,CIUDAD DE MEXICO,W0093,9,4831.0,S,9,SUC. TACUBAYA,4831,D DIV RB METRO SUR,5231,MS03 - FELIX CUEVAS,19.403832,-99.1984865
1-747564-AT,M,44630,GUADALAJARA,JALISCO,Z0461,3046,6150.0,C,3046,SUC. TERRANOVA,6150,D DIV RB OCCIDENTE,6049,O03 - GUADALAJARA,20.6986377,-103.3755846
1-709114-XF,F,48760,TONAYA,JALISCO,W1673,167,6150.0,S,167,SUC. TONAYA,6150,D DIV RB OCCIDENTE,6044,O06 - COLIMA,19.7834143,-103.9679376
1-739475-HQ,M,45730,VILLA CORONA,JALISCO,V0330,162,6150.0,S,162,SUC. ARANDAS,6150,D DIV RB OCCIDENTE,6053,O05 - ALTOS JALISCO,20.4136105,-103.6647475
1-125518-YV,F,28000,COLIMA,COLIMA,V0393,172,6150.0,S,172,SUC. COLIMA CENTRO,6150,D DIV RB OCCIDENTE,6044,O06 - COLIMA,19.2407185,-103.7247395
1-151265-ML,M,1400,ALVARO OBREGON,CIUDAD DE MEXICO,W0368,36,4831.0,S,36,SUC. MIXCOAC,4831,D DIV RB METRO SUR,5230,MS01 - ALTAVISTA,19.3749773,-99.2123644
1-422826-TS,F,34105,DURANGO,DURANGO,V0065,220,9932.0,V,220,SUC. CENTRO DURANGO,9932,D DIV RB NORTE,7903,N11 - DURANGO,24.0089206,-104.6938229
1-484194-KU,M,1070,ALVARO OBREGON,CIUDAD DE MEXICO,V0506,3013,4831.0,C,3013,SUC. CENTRO COMERCIAL PERISUR,4831,D DIV RB METRO SUR,5214,MS05 - PEDREGAL,19.3445105,-99.1863038
1-125930-RL,F,11850,MIGUEL HIDALGO,CIUDAD DE MEXICO,V0003,835,4831.0,C,835,SUC. PLAZA DE LA CONSTITUCION,4831,D DIV RB METRO SUR,5202,MS02 - CENTRO,19.4144386,-99.1830639
1-860363-SJ,M,50050,TOLUCA,MEXICO,W0998,99,9934.0,C,99,SUC. TORRE HSBC,9934,D DIV RB METRO NORTE,9764,MN02 - REFORMA,19.2972355,-99.6568987
1-290114-VQ,F,45199,ZAPOPAN,JALISCO,V0431,695,6150.0,C,695,SUC. ATEMAJAC,6150,D DIV RB OCCIDENTE,6135,O01 - GUADALAJARA,20.7387229,-103.3376363
1-197235-WM,M,14275,TLALPAN,CIUDAD DE MEXICO,W0182,18,9934.0,C,18,SUC. GUADALUPE,9934,D DIV RB METRO NORTE,5224,MN05 - CONDESA ROMA,19.2658563,-99.2091951
1-539853-YN,F,29020,TUXTLA GUTIERREZ,CHIAPAS,W4013,401,9610.0,C,401,SUC.PLAZA CRYSTAL,9610,D DIV RB PENINSULAR,9105,P03 - CHIAPAS,16.7591685,-93.1686335
1-595246-VY,M,2050,AZCAPOTZALCO,CIUDAD DE MEXICO,W9483,948,9934.0,S,948,SUC. NEXTENGO,9934,D DIV RB METRO NORTE,5206,MN06 - LINDAVISTA,19.4786088,-99.17735
1-986071-QC,M,72570,PUEBLA,PUEBLA,W3168,316,9933.0,C,316,SUC. SAN MANUEL,9933,D DIV RB  SUR,5223,S02 - PUEBLA,19.008832,-98.1929188
1-923832-NT,M,86800,TEAPA,TABASCO,W3578,357,9610.0,C,357,SUC. TEAPA,9610,D DIV RB PENINSULAR,9000,P02 - TABASCO,17.5491628,-92.9529082
1-732611-B[,M,86500,CARDENAS,TABASCO,V0297,348,9610.0,C,348,SUC. CARDENAS,9610,D DIV RB PENINSULAR,9000,P02 - TABASCO,17.9981457,-93.375123
1-208395-YU,F,4700,COYOACAN,CIUDAD DE MEXICO,W0638,63,4831.0,C,63,SUC. HOLBEIN,4831,D DIV RB METRO SUR,5231,MS03 - FELIX CUEVAS,19.3081341,-99.1680962
1-630596-B\,F,45058,ZAPOPAN,JALISCO,W2908,290,6150.0,C,290,SUC. PZA. ARBOLEDAS,6150,D DIV RB OCCIDENTE,6135,O01 - GUADALAJARA,20.6514835,-103.4246545
1-330829-K[,M,22940,ENSENADA,BAJA CALIFORNIA,W1392,139,6777.0,C,139,SUC. SAN QUINTIN,6777,D DIV  RB NOROESTE,7489,NO02 - PACIFICO NORTE,30.4893901,-115.973886
1-593342-SF,F,86220,NACAJUCA,TABASCO,W3454,345,9933.0,C,345,SUC. MINATITLAN,9933,D DIV RB  SUR,5219,S05 - VERACRUZ,18.1683541,-93.0189798
1-242472-GL,F,25280,SALTILLO,COAHUILA DE ZARAGOZA,W2378,237,9932.0,C,237,SUC. OFICINA CENTRAL SALTILLO,9932,D DIV RB NORTE,8210,N10 - SALTILLO,25.4407745,-100.9839921
1-299377-SA,M,94500,CORDOBA,VERACRUZ DE IGNACIO DE LA LLAVE,O9385,511,9934.0,S,511,SUC. MAZARIK,9934,D DIV RB METRO NORTE,9764,MN02 - REFORMA,18.89189,-96.9325443
1-885474-PA,M,23470,LOS CABOS,BAJA CALIFORNIA SUR,V0350,1687,6777.0,U,1687,SUC. PLAZA SAN LUCAS,6777,D DIV  RB NOROESTE,7213,NO07 - B.C.S,22.8884829,-109.9156526
1-388465-MT,F,97130,MERIDA,YUCATAN,Z9032,3903,9610.0,S,3903,SUC. FRANCISCO DE MONTEJO,9610,D DIV RB PENINSULAR,9217,P01 - MERIDA,21.0258867,-89.5746869
1-785566-ZW,F,83138,HERMOSILLO,SONORA,W1693,169,6777.0,C,169,SUC. LUIS ENCINAS,6777,D DIV  RB NOROESTE,7009,NO04 - HERMOSILLO,29.1136292,-110.9791923
1-158397-BA,M,50220,TOLUCA,MEXICO,V0516,94,9934.0,C,94,SUC. ZONA INDUSTRIAL,9934,D DIV RB METRO NORTE,5207,MN01 - TOLUCA,19.3191039,-99.594664
1-718604-TR,M,29010,TUXTLA GUTIERREZ,CHIAPAS,W4018,401,9610.0,C,401,SUC.PLAZA CRYSTAL,9610,D DIV RB PENINSULAR,9105,P03 - CHIAPAS,16.7659863,-93.0990851
1-693592-HR,M,47270,ENCARNACION DE DIAZ,JALISCO,W1563,156,9931.0,C,156,SUC. ENCARNACION,9931,D DIV RB CENTRO,6204,C01 - LEON,21.5320748,-102.2376678
1-206143-RE,M,28870,MANZANILLO,COLIMA,V0165,184,6150.0,C,184,SUC. SANTIAGO COLIMA,6150,D DIV RB OCCIDENTE,6044,O06 - COLIMA,19.1161592,-104.2670524
1-559947-TW,M,11000,MIGUEL HIDALGO,CIUDAD DE MEXICO,V8155,3006,9934.0,S,3006,SUC. LOMAS PALMAS,9934,D DIV RB METRO NORTE,5235,MN03 - SANTA FE,19.4216613,-99.2256635
1-803140-[T,M,6500,CUAUHTEMOC,CIUDAD DE MEXICO,W0998,99,9934.0,C,99,SUC. TORRE HSBC,9934,D DIV RB METRO NORTE,9764,MN02 - REFORMA,19.4303992,-99.1695461
1-547713-XF,M,3100,BENITO JUAREZ,CIUDAD DE MEXICO,V0034,537,4831.0,C,537,SUC. FELIX CUEVAS,4831,D DIV RB METRO SUR,5231,MS03 - FELIX CUEVAS,19.3845688,-99.1698933
1-785942-EU,M,52700,CAPULHUAC,MEXICO,V0662,80,9934.0,C,80,SUC. SANTIAGO TIANGUISTENCO,9934,D DIV RB METRO NORTE,5207,MN01 - TOLUCA,19.1930977,-99.4648627
1-351594-MM,F,86179,CENTRO,TABASCO,V0180,3078,9610.0,C,3078,SUC. CIUDAD DEPORTIVA,9610,D DIV RB PENINSULAR,9000,P02 - TABASCO,17.9657481,-92.9512355
1-467082-RQ,F,52970,ATIZAPAN DE ZARAGOZA,MEXICO,V0649,68,9934.0,C,68,SUC. VILLAS DE LA HACIENDA,9934,D DIV RB METRO NORTE,5238,MN07 - CUAUTITLAN,19.5493053,-99.2414173
1-233963-ST,M,66240,SAN PEDRO GARZA GARCIA,NUEVO LEON,X1372,1137,9932.0,C,1137,SUC. H.E.B.,9932,D DIV RB NORTE,8003,N02 - MONTERREY 2,25.6555124,-100.3881573
1-693115-QT,F,49000,ZAPOTLAN EL GRANDE,JALISCO,V0407,153,6150.0,V,153,SUC. CD. GUZMAN,6150,D DIV RB OCCIDENTE,6044,O06 - COLIMA,19.7041501,-103.4610006
1-690156-LL,F,61518,ZITACUARO,MICHOACAN DE OCAMPO,W2981,298,9934.0,C,298,SUC. ZITACUARO,9934,D DIV RB METRO NORTE,5207,MN01 - TOLUCA,19.4428054,-100.3597784
1-468759-YM,M,3100,BENITO JUAREZ,CIUDAD DE MEXICO,W5691,569,4831.0,C,569,SUC. GLORIETA RIVIERA,4831,D DIV RB METRO SUR,5231,MS03 - FELIX CUEVAS,19.3845688,-99.1698933
1-520415-O\,M,57000,NEZAHUALCOYOTL,MEXICO,W7573,757,9934.0,S,757,SUC. TLATILCO,9934,D DIV RB METRO NORTE,5206,MN06 - LINDAVISTA,19.3943312,-98.9916095
1-217078-KK,M,14050,TLALPAN,CIUDAD DE MEXICO,W0558,55,4831.0,C,55,SUC. UNIVERSIDAD,4831,D DIV RB METRO SUR,5231,MS03 - FELIX CUEVAS,19.2961163,-99.1565136
1-742640-VO,F,11350,MIGUEL HIDALGO,CIUDAD DE MEXICO,W0078,7,9934.0,S,7,SUC. PARQUES POLANCO,9934,D DIV RB METRO NORTE,9764,MN02 - REFORMA,19.4550305,-99.1698158
1-154520-AH,M,20100,AGUASCALIENTES,AGUASCALIENTES,V0436,710,9931.0,C,710,SUC. COLOSIO,9931,D DIV RB CENTRO,6205,C02 - AGS ZAC,21.9357207,-102.3276936
1-777943-KS,F,1060,ALVARO OBREGON,CIUDAD DE MEXICO,W3623,362,9934.0,S,362,SUC. ECHEGARAY,9934,D DIV RB METRO NORTE,5205,MN04 - SATELITE,19.3502339,-99.1957954
1-323500-S[,M,85000,OBREGON,SONORA,V0169,181,6777.0,S,181,SUC. CALIFORNIA,6777,D DIV  RB NOROESTE,7101,NO05 - CD OBREGON,27.4929285,-109.9304075
1-681771-ZO,F,44990,GUADALAJARA,JALISCO,W4494,449,6150.0,S,449,SUC. PLAZA SUR,6150,D DIV RB OCCIDENTE,6056,O02 - GUADALAJARA,20.6143698,-103.3483333
1-357758-KV,F,3630,BENITO JUAREZ,CIUDAD DE MEXICO,W8353,835,4831.0,S,835,SUC. PLAZA DE LA CONSTITUCION,4831,D DIV RB METRO SUR,5202,MS02 - CENTRO,19.3804795,-99.1505353
1-644909-KM,F,49700,SAN GABRIEL,JALISCO,W1661,166,6150.0,S,166,SUC. SAN GABRIEL,6150,D DIV RB OCCIDENTE,6044,O06 - COLIMA,19.747949,-103.7591639
1-679479-OB,M,48740,EL GRULLO,JALISCO,W1614,161,6150.0,C,161,SUC. EL GRULLO,6150,D DIV RB OCCIDENTE,6044,O06 - COLIMA,19.8087296,-104.2147854
1-463960-WZ,M,58050,MORELIA,MICHOACAN DE OCAMPO,W7023,702,6150.0,C,702,SUC. LA HUERTA,6150,D DIV RB OCCIDENTE,6526,O07 - MORELIA,19.6841495,-101.2191019
1-510287-SC,F,44200,GUADALAJARA,JALISCO,W1124,112,6150.0,C,112,SUC. SANTUARIO,6150,D DIV RB OCCIDENTE,6135,O01 - GUADALAJARA,20.6884678,-103.3592911
1-343804-TW,M,4000,COYOACAN,CIUDAD DE MEXICO,V0398,3808,6150.0,S,3808,SUC. SAO PAULO,6150,D DIV RB OCCIDENTE,6049,O03 - GUADALAJARA,19.3503379,-99.1628931
1-360095-RZ,F,87350,MATAMOROS,TAMAULIPAS,W2578,257,9932.0,C,257,SUC. CENTRO MATAMOROS,9932,D DIV RB NORTE,8044,N07 - MATAMOROS-REYNOSA,25.8646319,-97.5077886
1-163753-GN,M,84030,NOGALES,SONORA,V0466,1185,6777.0,U,1185,SUC. MORELOS NORTE,6777,D DIV  RB NOROESTE,7009,NO04 - HERMOSILLO,31.3183991,-110.9463211
1-506667-CP,M,55900,OTUMBA,MEXICO,W7763,776,9934.0,C,776,SUC. OTUMBA,9934,D DIV RB CENTRO,5908,C06 - PACHUCA,19.7009618,-98.7557638
1-300108-OY,F,48050,AYUTLA,JALISCO,W1702,170,6150.0,S,170,SUC. AYUTLA,6150,D DIV RB OCCIDENTE,6044,O06 - COLIMA,20.1289607,-104.3468293
1-624998-XR,M,36660,IRAPUATO,GUANAJUATO,W2822,282,9931.0,C,282,SUC. IRAPUATO,9931,D DIV RB CENTRO,6609,C04 - GUANAJUATO,20.6900894,-101.3528789
1-894942-DT,F,45120,ZAPOPAN,JALISCO,Z8044,3804,6150.0,C,3804,SUC. ANDARES,6150,D DIV RB OCCIDENTE,6049,O03 - GUADALAJARA,20.6807047,-103.4128748
1-512560-OS,M,21400,TECATE,BAJA CALIFORNIA,W1364,136,6777.0,C,136,SUC. TECATE,6777,D DIV  RB NOROESTE,7402,NO01 - TIJUANA,32.5715573,-116.6258431
1-637234-BH,M,3920,BENITO JUAREZ,CIUDAD DE MEXICO,Z0154,3015,4831.0,S,3015,SUC. GALERIAS INSURGENTES,4831,D DIV RB METRO SUR,5212,MS08 - COYOACAN,19.3734549,-99.1851916
1-541499-QI,F,14300,TLALPAN,CIUDAD DE MEXICO,W0998,99,9934.0,S,99,SUC. TORRE HSBC,9934,D DIV RB METRO NORTE,9764,MN02 - REFORMA,19.2994003,-99.1257553
1-849227-SK,M,27040,TORREON,COAHUILA DE ZARAGOZA,W2294,229,9932.0,S,229,SUC. ABASTOS TORREON,9932,D DIV RB NORTE,8727,N09 - TORREON,25.5542582,-103.4127423
1-177328-NB,F,25900,RAMOS ARIZPE,COAHUILA DE ZARAGOZA,W2382,238,9932.0,C,238,SUC. RAMOS ARIZPE,9932,D DIV RB NORTE,8210,N10 - SALTILLO,25.5385821,-100.951091
1-864123-Y[,M,54720,CUAUTITLAN IZCALLI,MEXICO,W6513,651,9934.0,C,651,SUC. PABELLON POLANCO,9934,D DIV RB METRO NORTE,9764,MN02 - REFORMA,19.6606964,-99.2489668
1-424893-FJ,M,64650,MONTERREY,NUEVO LEON,Z9172,3917,9932.0,C,3917,SUC. ENLACE SORIANA MTY,9932,D DIV RB NORTE,8003,N02 - MONTERREY 2,25.6743052,-100.3750482
1-279471-IA,M,45580,SAN PEDRO TLAQUEPAQUE,JALISCO,W0994,99,9934.0,C,99,SUC. TORRE HSBC,9934,D DIV RB METRO NORTE,9764,MN02 - REFORMA,20.6276437,-103.2905925
1-646078-EZ,M,76230,SANTIAGO DE QUERETARO,QUERETARO,V0649,68,9934.0,S,68,SUC. VILLAS DE LA HACIENDA,9934,D DIV RB METRO NORTE,5238,MN07 - CUAUTITLAN,20.7227191,-100.4468435
1-827027-XH,M,63735,BAHIA DE BANDERAS,NAYARIT,V0072,940,6150.0,C,940,SUC. AEROPUERTO VALLARTA,6150,D DIV RB OCCIDENTE,6050,O04 -GUADALAJARA,20.7317679,-105.284135
1-849846-PI,F,15900,VENUSTIANO CARRANZA,CIUDAD DE MEXICO,W5993,599,4831.0,S,599,SUC. FRAY SERVANDO,4831,D DIV RB METRO SUR,5226,MS10 - AEROPUERTO,19.416667,-99.113889
1-400042-TO,M,1430,ALVARO OBREGON,CIUDAD DE MEXICO,W5483,548,4831.0,C,548,SUC. COLINAS DEL SUR,4831,D DIV RB METRO SUR,5230,MS01 - ALTAVISTA,19.3678801,-99.2198094
1-852127-WQ,M,7300,GUSTAVO A MADERO,CIUDAD DE MEXICO,W0408,40,9934.0,C,40,SUC. LINDAVISTA,9934,D DIV RB METRO NORTE,5206,MN06 - LINDAVISTA,19.4952031,-99.1270416
1-435829-CX,F,3630,BENITO JUAREZ,CIUDAD DE MEXICO,V0171,3009,4831.0,S,3009,SUC. GLORIETA VERTIZ,4831,D DIV RB METRO SUR,5202,MS02 - CENTRO,19.3804795,-99.1505353
1-454186-LC,M,64898,MONTERREY,NUEVO LEON,V0357,1634,9932.0,C,1634,SUC. MALL SAN PEDRO,9932,D DIV RB NORTE,8003,N02 - MONTERREY 2,25.6067557,-100.2557652
1-942715-MP,F,86038,CENTRO,TABASCO,V0084,350,9610.0,C,350,SUC. MENDEZ,9610,D DIV RB PENINSULAR,9000,P02 - TABASCO,18.0169829,-92.9521606
1-995393-YQ,M,52977,ATIZAPAN DE ZARAGOZA,MEXICO,W0538,53,9934.0,C,53,SUC. ATIZAPAN,9934,D DIV RB METRO NORTE,5238,MN07 - CUAUTITLAN,19.5570856,-99.2534979
1-565050-TY,M,44960,GUADALAJARA,JALISCO,W1262,126,6150.0,C,126,SUC. PLAZA LAS TORRES,6150,D DIV RB OCCIDENTE,6049,O03 - GUADALAJARA,20.6303356,-103.3703809
1-433026-LO,F,9850,IZTAPALAPA,CIUDAD DE MEXICO,W0994,99,9934.0,S,99,SUC. TORRE HSBC,9934,D DIV RB METRO NORTE,9764,MN02 - REFORMA,19.3342366,-99.0835457
1-893912-RD,F,49088,ZAPOTLAN EL GRANDE,JALISCO,W8242,824,6150.0,S,824,SUC. PLAZA ZAPOTLAN,6150,D DIV RB OCCIDENTE,6044,O06 - COLIMA,19.6881512,-103.4801068
1-802612-IM,M,44270,GUADALAJARA,JALISCO,Z5583,3558,6150.0,C,3558,SUC.PLAZA GALERIAS GUADALAJARA,6150,D DIV RB OCCIDENTE,6135,O01 - GUADALAJARA,20.6983507,-103.3400033
1-186758-ZR,M,57730,NEZAHUALCOYOTL,MEXICO,Z0268,3026,9934.0,S,3026,SUC. LOMAS DE TECAMACHALCO,9934,D DIV RB METRO NORTE,5235,MN03 - SANTA FE,19.3953619,-99.0353833
1-828939-VV,M,8000,IZTACALCO,CIUDAD DE MEXICO,W0954,95,9934.0,C,95,SUC.  PLAZA IZCALLI,9934,D DIV RB METRO NORTE,5238,MN07 - CUAUTITLAN,19.395278,-99.097778
1-314275-XL,M,3910,BENITO JUAREZ,CIUDAD DE MEXICO,V0088,61,4831.0,S,61,SUC. ISABEL LA CATOLICA,4831,D DIV RB METRO SUR,5202,MS02 - CENTRO,19.3739952,-99.1897651
1-375841-EI,F,14000,TLALPAN,CIUDAD DE MEXICO,W0998,99,9934.0,S,99,SUC. TORRE HSBC,9934,D DIV RB METRO NORTE,9764,MN02 - REFORMA,19.289265,-99.1678836
1-527335-DP,F,31214,CHIHUAHUA,CHIHUAHUA,V0454,750,6777.0,C,750,SUC. PLAZA QUINTAS,6777,D DIV  RB NOROESTE,7701,NO10 - CHIHUAHUA CENTRO,28.6363032,-106.1013628
1-783318-TT,M,44600,GUADALAJARA,JALISCO,W0192,19,9934.0,C,19,SUC. POLANCO,9934,D DIV RB METRO NORTE,9764,MN02 - REFORMA,20.6854385,-103.3721518
1-843193-HS,F,45040,ZAPOPAN,JALISCO,W1172,117,6150.0,C,117,SUC. TOLSA,6150,D DIV RB OCCIDENTE,6056,O02 - GUADALAJARA,20.6608036,-103.4015481
1-617730-TV,F,3100,BENITO JUAREZ,CIUDAD DE MEXICO,W7378,737,9934.0,C,737,SUC. ARISTOTELES,9934,D DIV RB METRO NORTE,9764,MN02 - REFORMA,19.3845688,-99.1698933
1-833714-KQ,F,91700,VERACRUZ,VERACRUZ DE IGNACIO DE LA LLAVE,X9143,1914,9933.0,C,1914,SUC. CARDEL,9933,D DIV RB  SUR,8471,S04 - XALAPA,19.1907839,-96.1472854
1-356272-OU,M,44910,GUADALAJARA,JALISCO,W1092,109,6150.0,C,109,SUC. HIGUERILLAS,6150,D DIV RB OCCIDENTE,6056,O02 - GUADALAJARA,20.6466877,-103.3568286
1-100608-AU,F,92830,TUXPAN,VERACRUZ DE IGNACIO DE LA LLAVE,W3423,342,9933.0,C,342,SUC. TUXPAN,9933,D DIV RB  SUR,8611,S06 - POZA RICA,20.9636595,-97.3976249
1-855920-RH,M,58090,MORELIA,MICHOACAN DE OCAMPO,W0243,24,4831.0,S,24,SUC. ALAMOS,4831,D DIV RB METRO SUR,5202,MS02 - CENTRO,19.6769224,-101.1859137
1-142775-OD,M,97217,MERIDA,YUCATAN,W3752,375,9610.0,C,375,SUC.SANTIAGO,9610,D DIV RB PENINSULAR,9308,P05 - PENINSULA,20.9977248,-89.6581878
1-277370-UQ,M,45160,ZAPOPAN,JALISCO,V0247,120,6150.0,C,120,SUC. PLAZA PATRIA,6150,D DIV RB OCCIDENTE,6049,O03 - GUADALAJARA,20.7124464,-103.3831334
1-127036-UO,M,27018,TORREON,COAHUILA DE ZARAGOZA,V0364,1676,9932.0,C,1676,SUC. PENOLES,9932,D DIV RB NORTE,8727,N09 - TORREON,25.6002461,-103.3957975
1-179522-HR,M,53240,NAUCALPAN,MEXICO,Z0154,3015,4831.0,C,3015,SUC. GALERIAS INSURGENTES,4831,D DIV RB METRO SUR,5212,MS08 - COYOACAN,19.4909534,-99.2511567
1-439101-VL,F,89440,MADERO,TAMAULIPAS,W3445,344,9933.0,C,344,SUC. COATZACOLACOS,9933,D DIV RB  SUR,5219,S05 - VERACRUZ,22.2616171,-97.8540728
1-288967-DQ,F,4120,COYOACAN,CIUDAD DE MEXICO,V9445,11,4831.0,D,11,SUC. COYOACAN,4831,D DIV RB METRO SUR,5212,MS08 - COYOACAN,19.3509043,-99.1474443
1-666071-SN,F,83105,HERMOSILLO,SONORA,X1852,1185,6777.0,S,1185,SUC. MORELOS NORTE,6777,D DIV  RB NOROESTE,7009,NO04 - HERMOSILLO,29.1474978,-110.9894219
1-735706-NF,F,47300,YAHUALICA DE GZALEZ GALLO,JALISCO,W1648,164,6150.0,S,164,SUC. YAHUALICA,6150,D DIV RB OCCIDENTE,6053,O05 - ALTOS JALISCO,21.1790507,-102.8851294
1-670408-HC,M,21900,MEXICALI,BAJA CALIFORNIA,W4522,452,6777.0,C,452,SUC. VILLAFONTANA,6777,D DIV  RB NOROESTE,7611,NO03 - MEXICALI,32.5672218,-114.9933328
1-412820-TA,F,52167,METEPEC,MEXICO,W0838,83,9934.0,S,83,SUC. TOLUCA ISIDRO FABELA,9934,D DIV RB METRO NORTE,5207,MN01 - TOLUCA,19.2578831,-99.6313327
1-157286-QG,F,1280,ALVARO OBREGON,CIUDAD DE MEXICO,W0368,36,4831.0,C,36,SUC. MIXCOAC,4831,D DIV RB METRO SUR,5230,MS01 - ALTAVISTA,19.38596,-99.2016405
1-732734-DY,M,52959,ATIZAPAN DE ZARAGOZA,MEXICO,W0173,17,9934.0,C,17,SUC. ZONA ROSA,9934,D DIV RB METRO NORTE,5224,MN05 - CONDESA ROMA,19.5713828,-99.228762
1-660446-WA,F,83440,SAN LUIS RIO COLORADO,SONORA,W1492,149,6777.0,C,149,SUC. CENTRO CIVICO,6777,D DIV  RB NOROESTE,7611,NO03 - MEXICALI,32.4605117,-114.7830951
1-978912-QP,F,22000,TIJUANA,BAJA CALIFORNIA,W1018,101,6777.0,S,101,SUC. TIJUANA,6777,D DIV  RB NOROESTE,7489,NO02 - PACIFICO NORTE,32.5350129,-117.0426159
1-944072-BZ,M,56700,TLALMANALCO,MEXICO,W0303,30,4831.0,U,30,SUC. CHALCO,4831,D DIV RB METRO SUR,5213,MS09 - IZTAPALAPA,19.2037384,-98.8016834
1-194176-ZT,M,45315,TALA,JALISCO,W1744,174,6150.0,C,174,SUC. TLAJOMULCO,6150,D DIV RB OCCIDENTE,6056,O02 - GUADALAJARA,20.6856776,-103.6941101
1-527517-VJ,M,66436,SAN NICOLAS DE LOS GARZA,NUEVO LEON,W3871,387,9932.0,C,387,SUC. VILLAS DE STO.DOMINGO,9932,D DIV RB NORTE,8039,N03 - MONTERREY 3,25.7480391,-100.2611348
1-902724-ID,F,20290,AGUASCALIENTES,AGUASCALIENTES,W2868,286,9931.0,S,286,SUC. AMRICAS,9931,D DIV RB CENTRO,6205,C02 - AGS ZAC,21.7878637,-102.2726643
1-667882-LT,M,55530,ECATEPEC DE MORELOS,MEXICO,W0452,45,9934.0,C,45,SUC. XALOSTOC,9934,D DIV RB METRO NORTE,5209,MN09 - ECATEPEC,19.5458203,-99.0669415
1-818079-QF,F,45920,CHAPALA,JALISCO,Z8182,3818,6150.0,C,3818,SUC. AJIJIC,6150,D DIV RB OCCIDENTE,6053,O05 - ALTOS JALISCO,20.2986361,-103.2754031
1-317369-TD,M,26040,PIEDRAS NEGRAS,COAHUILA DE ZARAGOZA,V0068,245,9932.0,C,245,SUC. PIEDRAS NEGRAS,9932,D DIV RB NORTE,8712,N08 - NUEVO LAREDO,28.6944192,-100.5356891
1-514679-YQ,F,2340,AZCAPOTZALCO,CIUDAD DE MEXICO,V1005,556,4831.0,D,556,SUC. PEDREPLAZA,4831,D DIV RB METRO SUR,5214,MS05 - PEDREGAL,19.4882928,-99.1554217
1-396186-HX,M,4480,COYOACAN,CIUDAD DE MEXICO,W0322,32,4831.0,C,32,SUC. PREMIER,4831,D DIV RB METRO SUR,5215,MS07 - XOCHIMILCO,19.3265988,-99.1223431
1-446907-GR,M,45660,TLAJOMULCO DE ZUNIGA,JALISCO,V0246,174,6150.0,C,174,SUC. TLAJOMULCO,6150,D DIV RB OCCIDENTE,6056,O02 - GUADALAJARA,20.4206898,-103.3919161
1-229509-CB,F,25000,SALTILLO,COAHUILA DE ZARAGOZA,V0067,237,9932.0,S,237,SUC. OFICINA CENTRAL SALTILLO,9932,D DIV RB NORTE,8210,N10 - SALTILLO,25.4217215,-101.0001139
1-792512-YQ,F,4230,COYOACAN,CIUDAD DE MEXICO,V0117,61,4831.0,D,61,SUC. ISABEL LA CATOLICA,4831,D DIV RB METRO SUR,5202,MS02 - CENTRO,19.354753,-99.127029
1-568883-US,M,45179,ZAPOPAN,JALISCO,W1009,100,6150.0,C,100,SUC. OFICINA CENTRAL GUADALAJA,6150,D DIV RB OCCIDENTE,6049,O03 - GUADALAJARA,20.7241519,-103.3644948
1-915220-BQ,F,22520,TIJUANA,BAJA CALIFORNIA,V1035,127,6777.0,C,127,SUC. LAS PALMAS,6777,D DIV  RB NOROESTE,7402,NO01 - TIJUANA,32.5217865,-117.0856505
1-277463-WY,M,44100,GUADALAJARA,JALISCO,W1043,104,6150.0,C,104,SUC. PROVINCIAL,6150,D DIV RB OCCIDENTE,6056,O02 - GUADALAJARA,20.674935,-103.3474109
1-613345-EC,M,91700,VERACRUZ,VERACRUZ DE IGNACIO DE LA LLAVE,V0283,337,9933.0,C,337,SUC. PLAZA MOCAMBO,9933,D DIV RB  SUR,5219,S05 - VERACRUZ,19.1907839,-96.1472854
1-801595-EK,M,45238,ZAPOPAN,JALISCO,V1020,3982,6150.0,C,3982,PLAZA LAS VILLAS,6150,D DIV RB OCCIDENTE,6049,O03 - GUADALAJARA,20.6049137,-103.4494811
1-474858-NW,M,45130,ZAPOPAN,JALISCO,W1183,118,6150.0,C,118,SUC. PZA. DEL SOL,6150,D DIV RB OCCIDENTE,6049,O03 - GUADALAJARA,20.7525898,-103.4048207
1-757534-IY,M,27000,TORREON,COAHUILA DE ZARAGOZA,W2258,225,9932.0,C,225,SUC. CENTRO EJECUTIVO TORREON,9932,D DIV RB NORTE,8727,N09 - TORREON,25.5446612,-103.4405666
1-369396-KB,M,62270,CUERNAVACA,MORELOS,V0001,86,4831.0,C,86,SUC. CUERNAVACA LA SELVA,4831,D DIV RB METRO SUR,5814,MS06 - MORELOS,18.9377442,-99.2351681
1-405319-HT,M,94520,CORDOBA,VERACRUZ DE IGNACIO DE LA LLAVE,W3412,341,9933.0,C,341,SUC. CORDOBA,9933,D DIV RB  SUR,8471,S04 - XALAPA,18.900344,-96.9324949
1-356493-NL,F,3300,BENITO JUAREZ,CIUDAD DE MEXICO,W0772,77,9934.0,S,77,SUC. NUEVO LEON,9934,D DIV RB METRO NORTE,5224,MN05 - CONDESA ROMA,19.3625435,-99.1499789
1-119635-UE,M,89109,TAMPICO,TAMAULIPAS,W2724,272,9932.0,C,272,SUC. CD. MADERO,9932,D DIV RB  SUR,8619,S09 - TAMPICO-VICTORIA,22.2718261,-97.8617718
1-708688-YW,M,23020,LA PAZ,BAJA CALIFORNIA SUR,W1932,193,6777.0,S,193,SUC. LA PAZ CENTRO,6777,D DIV  RB NOROESTE,7213,NO07 - B.C.S,24.1609997,-110.3020687
1-460012-AQ,M,97217,MERIDA,YUCATAN,Z7298,3729,9610.0,C,3729,SUC. CIRCUITO COLONIAS,9610,D DIV RB PENINSULAR,9217,P01 - MERIDA,20.9977248,-89.6581878
1-857789-HJ,M,2400,AZCAPOTZALCO,CIUDAD DE MEXICO,V0088,61,4831.0,C,61,SUC. ISABEL LA CATOLICA,4831,D DIV RB METRO SUR,5202,MS02 - CENTRO,19.4897609,-99.2051046
1-906359-Z[,M,1900,ALVARO OBREGON,CIUDAD DE MEXICO,V1012,512,4831.0,V,512,SUC.REVOLUCION,4831,D DIV RB METRO SUR,5212,MS08 - COYOACAN,19.3323544,-99.2040742
1-470279-BY,F,39300,ACAPULCO DE JUAREZ,GUERRERO,V0099,75,9933.0,S,75,SUC.ACAPULCO COSTERA,9933,D DIV RB  SUR,5225,S08 - GUERRERO,16.8514842,-99.9067751
1-933272-ZC,M,4600,COYOACAN,CIUDAD DE MEXICO,V0403,610,4831.0,C,610,SUC. GRAN SUR,4831,D DIV RB METRO SUR,5214,MS05 - PEDREGAL,19.3131767,-99.1533633
1-151346-F[,M,48900,AUTLAN DE NAVARRO,JALISCO,V0324,159,6150.0,C,159,SUC. AUTLAN SUC. ASIG.III,6150,D DIV RB OCCIDENTE,6044,O06 - COLIMA,19.7676272,-104.3727414
1-691803-KJ,F,48050,AYUTLA,JALISCO,W1635,163,6150.0,C,163,SUC. PUERTO VALLARTA,6150,D DIV RB OCCIDENTE,6050,O04 -GUADALAJARA,20.1289607,-104.3468293
1-282054-NA,M,87360,MATAMOROS,TAMAULIPAS,W2578,257,9932.0,C,257,SUC. CENTRO MATAMOROS,9932,D DIV RB NORTE,8044,N07 - MATAMOROS-REYNOSA,25.8822121,-97.4902994
1-984455-XD,M,56100,TEXCOCO,MEXICO,V0651,99,9934.0,S,99,SUC. TORRE HSBC,9934,D DIV RB METRO NORTE,9764,MN02 - REFORMA,19.5148154,-98.8822508
1-490448-VR,M,49000,ZAPOTLAN EL GRANDE,JALISCO,W1531,153,6150.0,C,153,SUC. CD. GUZMAN,6150,D DIV RB OCCIDENTE,6044,O06 - COLIMA,19.7041501,-103.4610006
1-284304-[K,M,38040,CELAYA,GUANAJUATO,W3925,392,9931.0,C,392,SUC.GALERIAS,9931,D DIV RB CENTRO,6609,C04 - GUANAJUATO,20.5258464,-100.8278904
1-203453-V[,M,24010,CAMPECHE,CAMPECHE,W3692,369,9610.0,C,369,SUC.CAMPECHE,9610,D DIV RB PENINSULAR,9308,P05 - PENINSULA,19.8486581,-90.5274176
1-328930-DN,M,1210,ALVARO OBREGON,CIUDAD DE MEXICO,W2258,225,9932.0,S,225,SUC. CENTRO EJECUTIVO TORREON,9932,D DIV RB NORTE,8727,N09 - TORREON,19.3830506,-99.2411331
1-755905-OM,M,3020,BENITO JUAREZ,CIUDAD DE MEXICO,W0158,15,4831.0,C,15,SUC. NARVARTE,4831,D DIV RB METRO SUR,5202,MS02 - CENTRO,19.3925149,-99.1579012
1-162070-QE,M,83240,HERMOSILLO,SONORA,V0199,477,6777.0,C,477,SUC. STELITE,6777,D DIV  RB NOROESTE,7009,NO04 - HERMOSILLO,29.0751251,-110.9846857
1-237147-MZ,F,62520,TEPOZTLAN,MORELOS,W0012,1,4831.0,C,1,SUC. JUAREZ.,4831,D DIV RB METRO SUR,5202,MS02 - CENTRO,18.984778,-99.1001033
1-663336-KG,M,25230,SALTILLO,COAHUILA DE ZARAGOZA,V0067,237,9932.0,C,237,SUC. OFICINA CENTRAL SALTILLO,9932,D DIV RB NORTE,8210,N10 - SALTILLO,25.4608229,-100.987383
1-289193-RE,F,62220,CUERNAVACA,MORELOS,W4962,496,4831.0,S,496,SUC. DOMINGO DIEZ,4831,D DIV RB METRO SUR,5814,MS06 - MORELOS,18.9718167,-99.224156
1-344191-GJ,M,48150,CUAUTLA,JALISCO,W1009,100,6150.0,C,100,SUC. OFICINA CENTRAL GUADALAJA,6150,D DIV RB OCCIDENTE,6049,O03 - GUADALAJARA,20.2017375,-104.3976653
1-804417-TS,M,85820,NAVOJOA,SONORA,W1925,192,6777.0,C,192,SUC. NAVOJOA,6777,D DIV  RB NOROESTE,7101,NO05 - CD OBREGON,27.0750826,-109.4619472
1-796100-CS,F,76146,SANTIAGO DE QUERETARO,QUERETARO,V0057,29,4831.0,C,29,SUC. HUIPULCO,4831,D DIV RB METRO SUR,5214,MS05 - PEDREGAL,20.6171546,-100.3472391
1-322108-L[,M,45230,ZAPOPAN,JALISCO,V0283,337,9933.0,C,337,SUC. PLAZA MOCAMBO,9933,D DIV RB  SUR,5219,S05 - VERACRUZ,20.6169681,-103.4483703
1-479296-P\,M,97120,MERIDA,YUCATAN,V0446,3060,9610.0,C,3060,SUC. CAMPESTRE,9610,D DIV RB PENINSULAR,9217,P01 - MERIDA,21.0177503,-89.6178349
1-334414-BK,M,69007,HUAJUAPAN DE LEON,OAXACA,W3211,321,9933.0,C,321,SUC. HUAJUAPAN DE LEON,9933,D DIV RB  SUR,5815,S07 - OAXACA,17.7974438,-97.7836726
1-992593-GJ,F,91190,XALAPA,VERACRUZ DE IGNACIO DE LA LLAVE,V0188,335,9933.0,C,335,SUC. JALAPA URBANA,9933,D DIV RB  SUR,8471,S04 - XALAPA,19.5307707,-96.8876629
1-990281-GY,M,48200,TALPA DE ALLENDE,JALISCO,W7004,700,6150.0,C,700,SUC. COSTERA PUERTO VALLARTA,6150,D DIV RB OCCIDENTE,6050,O04 -GUADALAJARA,20.3809444,-104.824102
1-285383-WW,M,54740,CUAUTITLAN IZCALLI,MEXICO,V0496,590,9934.0,C,590,SUC. REHILETE IZCALLI,9934,D DIV RB METRO NORTE,5238,MN07 - CUAUTITLAN,19.6460373,-99.2114439
1-722790-SG,M,62380,CUERNAVACA,MORELOS,W0851,85,4831.0,C,85,SUC. CUERNAVACA  CENTRO,4831,D DIV RB METRO SUR,5814,MS06 - MORELOS,18.9285752,-99.1864054
1-693959-OT,M,48919,AUTLAN DE NAVARRO,JALISCO,W1591,159,6150.0,C,159,SUC. AUTLAN SUC. ASIG.III,6150,D DIV RB OCCIDENTE,6044,O06 - COLIMA,19.7205475,-104.259
1-584858-H\,M,27900,FRANCISCO I MADERO,COAHUILA DE ZARAGOZA,W2313,231,9932.0,C,231,SUC. FRANCISCO I. MADERO,9932,D DIV RB NORTE,8727,N09 - TORREON,25.7763708,-103.2713744
1-151693-RD,M,45050,ZAPOPAN,JALISCO,W1192,119,6150.0,C,119,SUC. TLAQUEPAQUE,6150,D DIV RB OCCIDENTE,6049,O03 - GUADALAJARA,20.655743,-103.4182397
1-731000-HA,M,82100,MAZATLAN,SINALOA,W3891,389,6777.0,C,389,SUC.ZONA DORADA,6777,D DIV  RB NOROESTE,7218,NO08 - SINALOA NORTE,23.2609738,-106.4594779
1-625831-WF,M,75760,TEHUACAN,PUEBLA,V0685,320,9933.0,C,320,SUC. TEHUACAN,9933,D DIV RB  SUR,5223,S02 - PUEBLA,18.4575699,-97.4074002
1-171427-TG,M,14260,TLALPAN,CIUDAD DE MEXICO,V0074,3013,4831.0,S,3013,SUC. CENTRO COMERCIAL PERISUR,4831,D DIV RB METRO SUR,5214,MS05 - PEDREGAL,19.2828415,-99.1902703
1-817755-BD,F,85060,CAJEME,SONORA,V0469,182,6777.0,C,182,SUC. MIGUEL ALEMAN,6777,D DIV  RB NOROESTE,7101,NO05 - CD OBREGON,27.4927927,-109.9184197
1-228418-UJ,F,58600,ZACAPU,MICHOACAN DE OCAMPO,W8232,823,6150.0,S,823,SUC. PATZCUARO,6150,D DIV RB OCCIDENTE,6526,O07 - MORELIA,19.8163159,-101.7903339
1-987811-QP,F,53580,NAUCALPAN DE JUAREZ,MEXICO,V0582,3002,9934.0,S,3002,SUC. PLAZA SATELITE,9934,D DIV RB METRO NORTE,5205,MN04 - SATELITE,19.4560442,-99.2487353
1-177765-SL,M,35158,LERDO,DURANGO,W4743,474,9932.0,C,474,SUC. PLAZA IMAGEN,9932,D DIV RB NORTE,8727,N09 - TORREON,25.5442263,-103.5237517
1-232187-BZ,M,97700,TIZIMIN,YUCATAN,W3802,380,9610.0,C,380,SUC.TIZIMIN,9610,D DIV RB PENINSULAR,9308,P05 - PENINSULA,21.1432219,-88.1516438
1-155926-PN,F,6720,CUAUHTEMOC,CIUDAD DE MEXICO,W3739,373,9931.0,S,373,SUC.JURICA,9931,D DIV RB CENTRO,6607,C03 - QUERETARO,19.4155586,-99.1502457
1-237401-HI,M,3400,BENITO JUAREZ,CIUDAD DE MEXICO,X9913,1991,4831.0,C,1991,SUC. PARQUE DELTA,4831,D DIV RB METRO SUR,5202,MS02 - CENTRO,19.4003876,-99.141001
1-321567-MY,M,55080,ECATEPEC,MEXICO,W8352,835,4831.0,C,835,SUC. PLAZA DE LA CONSTITUCION,4831,D DIV RB METRO SUR,5202,MS02 - CENTRO,19.5752713,-99.0496952
1-242782-QQ,F,22206,TIJUANA,BAJA CALIFORNIA,V0573,132,6777.0,C,132,SUC. PLAYAS,6777,D DIV  RB NOROESTE,7489,NO02 - PACIFICO NORTE,32.494484,-116.8698879
1-699027-RZ,F,44750,GUADALAJARA,JALISCO,W1043,104,6150.0,S,104,SUC. PROVINCIAL,6150,D DIV RB OCCIDENTE,6056,O02 - GUADALAJARA,20.6773993,-103.2901773
1-919788-US,M,31213,CHIHUAHUA,CHIHUAHUA,V0463,721,6777.0,S,721,SUC. ZONA DORADA,6777,D DIV  RB NOROESTE,7701,NO10 - CHIHUAHUA CENTRO,28.6379509,-106.1079926
1-606246-XV,F,7020,GUSTAVO A MADERO,CIUDAD DE MEXICO,W0404,40,9934.0,S,40,SUC. LINDAVISTA,9934,D DIV RB METRO NORTE,5206,MN06 - LINDAVISTA,19.4856877,-99.1223744
1-177667-EB,F,37340,LEON,GUANAJUATO,W2763,276,9931.0,S,276,SUC. URBANA GALERIAS,9931,D DIV RB CENTRO,6204,C01 - LEON,21.1290969,-101.6957875
1-865516-JP,M,72229,PUEBLA,PUEBLA,W7834,783,9933.0,S,783,SUC. 783 PLAZA CRYSTAL,9933,D DIV RB  SUR,5223,S02 - PUEBLA,19.0893279,-98.1029465
1-818412-WC,M,57400,NEZAHUALCOYOTL,MEXICO,W0078,7,9934.0,S,7,SUC. PARQUES POLANCO,9934,D DIV RB METRO NORTE,9764,MN02 - REFORMA,19.4190008,-99.0548832
1-522065-AI,M,96340,COSOLEACAQUE,VERACRUZ,W3454,345,9933.0,C,345,SUC. MINATITLAN,9933,D DIV RB  SUR,5219,S05 - VERACRUZ,18.1021469,-94.576129
1-684122-HT,M,72530,PUEBLA,PUEBLA,V0040,314,9933.0,C,314,SUC.LOS ANGELES,9933,D DIV RB  SUR,5218,S01 - PUEBLA,19.0275587,-98.1988578
1-918855-AD,F,44639,GUADALAJARA,JALISCO,Z7082,3708,6150.0,S,3708,SUC. VALLE REAL,6150,D DIV RB OCCIDENTE,6049,O03 - GUADALAJARA,20.6980763,-103.3873163
1-565154-XW,M,9260,IZTAPALAPA,CIUDAD DE MEXICO,X1572,1157,4831.0,C,1157,SUC. TIZAPAN SAN ANGEL,4831,D DIV RB METRO SUR,5230,MS01 - ALTAVISTA,19.349281,-99.0613653
1-951789-AS,F,3100,BENITO JUAREZ,CIUDAD DE MEXICO,V0651,99,9934.0,S,99,SUC. TORRE HSBC,9934,D DIV RB METRO NORTE,9764,MN02 - REFORMA,19.3845688,-99.1698933
1-711474-QG,F,87470,MATAMOROS,TAMAULIPAS,W2572,257,9932.0,S,257,SUC. CENTRO MATAMOROS,9932,D DIV RB NORTE,8044,N07 - MATAMOROS-REYNOSA,25.842308,-97.4637092
1-801015-JA,F,33863,HIDALGO DEL PARRAL,CHIHUAHUA,W2162,216,6777.0,S,216,SUC. PARRAL,6777,D DIV  RB NOROESTE,7701,NO10 - CHIHUAHUA CENTRO,26.9176468,-105.6751785
1-758960-VG,M,63157,TEPIC,NAYARIT,W1718,171,6150.0,C,171,SUC. TEPIC CENTRO,6150,D DIV RB OCCIDENTE,6050,O04 -GUADALAJARA,21.4917577,-104.8848295
1-992987-HC,M,97144,MERIDA,YUCATAN,Z0563,3056,9610.0,S,3056,SUC. CALLE SESENTA,9610,D DIV RB PENINSULAR,9308,P05 - PENINSULA,20.9843441,-89.5749389
1-891524-AE,M,62290,CUERNAVACA,MORELOS,V0109,86,4831.0,S,86,SUC. CUERNAVACA LA SELVA,4831,D DIV RB METRO SUR,5814,MS06 - MORELOS,18.935371,-99.214316
1-140759-MZ,M,4410,COYOACAN,CIUDAD DE MEXICO,W0998,99,9934.0,S,99,SUC. TORRE HSBC,9934,D DIV RB METRO NORTE,9764,MN02 - REFORMA,19.3372032,-99.1316022
1-152014-YI,M,9880,IZTAPALAPA,CIUDAD DE MEXICO,W0738,73,4831.0,S,73,SUC. PLAZA ZARAGOZA,4831,D DIV RB METRO SUR,5226,MS10 - AEROPUERTO,19.31677,-99.0812035
1-944550-WC,M,91900,VERACRUZ,VERACRUZ DE IGNACIO DE LA LLAVE,V0190,337,9933.0,C,337,SUC. PLAZA MOCAMBO,9933,D DIV RB  SUR,5219,S05 - VERACRUZ,19.1908314,-96.1287389
1-486894-DC,M,97305,MERIDA,YUCATAN,Z0601,3060,9610.0,C,3060,SUC. CAMPESTRE,9610,D DIV RB PENINSULAR,9217,P01 - MERIDA,21.0393627,-89.5932663
1-987435-CF,M,35659,EL ORO,DURANGO,W2338,233,9932.0,C,233,SUC. STA. MA. ORO,9932,D DIV RB NORTE,7903,N11 - DURANGO,23.952824990000067,-102.54835341899997
1-333957-FW,F,27148,TORREON,COAHUILA DE ZARAGOZA,V0123,424,9932.0,C,424,SUC. LOS ANGELES,9932,D DIV RB NORTE,8727,N09 - TORREON,25.5514883,-103.4506568
1-214003-II,M,95340,COSAMALOAPAN,VERACRUZ DE IGNACIO DE LA LLAVE,X8341,1834,9933.0,C,1834,SUC. COSAMALOAPAN,9933,D DIV RB  SUR,8471,S04 - XALAPA,18.3703636,-95.7650382
1-490803-EM,M,7960,GUSTAVO A MADERO,CIUDAD DE MEXICO,W0998,99,9934.0,S,99,SUC. TORRE HSBC,9934,D DIV RB METRO NORTE,9764,MN02 - REFORMA,19.4527435,-99.097613
1-853985-AY,F,36100,SILAO,GUANAJUATO,W2818,281,9931.0,S,281,SUC. SILAO,9931,D DIV RB CENTRO,6609,C04 - GUANAJUATO,20.943482,-101.4245644
1-785837-RM,M,21240,MEXICALI,BAJA CALIFORNIA,W1418,141,6777.0,C,141,SUC. MADERO,6777,D DIV  RB NOROESTE,7611,NO03 - MEXICALI,32.6514182,-115.434566
1-173598-SK,M,45050,ZAPOPAN,JALISCO,V0402,106,6150.0,C,106,SUC. CHAPULTEPEC,6150,D DIV RB OCCIDENTE,6049,O03 - GUADALAJARA,20.655743,-103.4182397
1-360538-MY,M,24120,CARMEN,CAMPECHE,W3065,306,9610.0,S,306,SUC. CD. DEL CARMEN,9610,D DIV RB PENINSULAR,9308,P05 - PENINSULA,18.6510739,-91.8321171
1-434244-YO,F,38050,CELAYA,GUANAJUATO,V0429,302,9931.0,S,302,SUC. CELAYA CENTRO,9931,D DIV RB CENTRO,6609,C04 - GUANAJUATO,20.527509,-100.8078144
1-629223-FW,F,21130,MEXICALI,BAJA CALIFORNIA,W1418,141,6777.0,S,141,SUC. MADERO,6777,D DIV  RB NOROESTE,7611,NO03 - MEXICALI,32.6548163,-115.51238
1-985712-WV,F,72824,SAN ANDRES CHOLULA,PUEBLA,W3102,310,9933.0,S,310,SUC. LA PAZ,9933,D DIV RB  SUR,5218,S01 - PUEBLA,19.037404,-98.2574597
1-922960-LW,F,28219,MANZANILLO,COLIMA,V0165,184,6150.0,S,184,SUC. SANTIAGO COLIMA,6150,D DIV RB OCCIDENTE,6044,O06 - COLIMA,19.0890908,-104.2899736
1-444809-[V,F,6400,CUAUHTEMOC,CIUDAD DE MEXICO,W0228,22,9934.0,C,22,SUC. NONOALCO,9934,D DIV RB METRO NORTE,5224,MN05 - CONDESA ROMA,19.449222,-99.1593263
1-921166-VA,M,47270,ENCARNACION DE DIAZ,JALISCO,V0253,156,9931.0,C,156,SUC. ENCARNACION,9931,D DIV RB CENTRO,6204,C01 - LEON,21.5320748,-102.2376678
1-425040-FV,M,27105,TORREON,COAHUILA DE ZARAGOZA,W8113,811,9932.0,C,811,SUC. PLAZA CUATRO CAMINOS,9932,D DIV RB NORTE,8727,N09 - TORREON,25.596847,-103.4146007
1-639186-BN,M,91000,XALAPA,VERACRUZ DE IGNACIO DE LA LLAVE,W3352,335,9933.0,C,335,SUC. JALAPA URBANA,9933,D DIV RB  SUR,8471,S04 - XALAPA,19.5272747,-96.9235011
1-488158-NG,M,44210,GUADALAJARA,JALISCO,W1082,108,6150.0,S,108,SUC. JESUS,6150,D DIV RB OCCIDENTE,6135,O01 - GUADALAJARA,20.7076167,-103.3621793
1-225326-NU,M,73160,HUAUCHINANGO,PUEBLA,W3272,327,9933.0,S,327,SUC. HUAUCHINANGO PUEBLA,9933,D DIV RB  SUR,8611,S06 - POZA RICA,20.1762623,-97.9945056
1-860993-IG,M,45237,ZAPOPAN,JALISCO,W1193,119,6150.0,C,119,SUC. TLAQUEPAQUE,6150,D DIV RB OCCIDENTE,6049,O03 - GUADALAJARA,20.6128374,-103.4639489
1-412289-MP,F,43625,TULANCINGO DE BRAVO,HIDALGO,X1451,1145,9934.0,S,1145,SUC. LA FUENTE INSURGENTES,9934,D DIV RB CENTRO,5908,C06 - PACHUCA,20.0969086,-98.3704073
1-920446-OD,F,1400,ALVARO OBREGON,CIUDAD DE MEXICO,W5928,592,4831.0,S,592,SUC. PLAZA LAS ROSAS,4831,D DIV RB METRO SUR,5230,MS01 - ALTAVISTA,19.3749773,-99.2123644
1-381898-VH,M,91919,VERACRUZ,VERACRUZ DE IGNACIO DE LA LLAVE,W3368,336,9933.0,S,336,SUC. OF. CENTRAL,9933,D DIV RB  SUR,5219,S05 - VERACRUZ,19.170405,-96.126747
1-801103-IU,M,57600,NEZAHUALCOYOTL,MEXICO,W0954,95,9934.0,S,95,SUC.  PLAZA IZCALLI,9934,D DIV RB METRO NORTE,5238,MN07 - CUAUTITLAN,19.4045088,-99.0351504
1-964789-LT,M,66059,GENERAL ESCOBEDO,NUEVO LEON,W2523,252,9932.0,C,252,SUC. PLAZA FIESTA ANAHUAC,9932,D DIV RB NORTE,8039,N03 - MONTERREY 3,25.786939,-100.2719233
1-852710-QR,F,7300,GUSTAVO A MADERO,CIUDAD DE MEXICO,W0164,16,9934.0,S,16,SUC. MEDELLIN,9934,D DIV RB METRO NORTE,5224,MN05 - CONDESA ROMA,19.4952031,-99.1270416
1-616667-VJ,M,54050,TLALNEPANTLA,MEXICO,W0148,14,9934.0,S,14,SUC. TEXCOCO,9934,D DIV RB METRO NORTE,5209,MN09 - ECATEPEC,19.5326115,-99.2261899
1-416963-SG,M,4230,COYOACAN,CIUDAD DE MEXICO,W0314,31,4831.0,C,31,SUC. IZTAPALAPA,4831,D DIV RB METRO SUR,5212,MS08 - COYOACAN,19.354753,-99.127029
1-272986-NY,F,48900,AUTLAN DE NAVARRO,JALISCO,V0324,159,6150.0,C,159,SUC. AUTLAN SUC. ASIG.III,6150,D DIV RB OCCIDENTE,6044,O06 - COLIMA,19.7676272,-104.3727414
1-638716-[F,F,3740,BENITO JUAREZ,CIUDAD DE MEXICO,W0954,95,9934.0,S,95,SUC.  PLAZA IZCALLI,9934,D DIV RB METRO NORTE,5238,MN07 - CUAUTITLAN,19.375531,-99.1810006
1-516251-KY,M,62140,CUERNAVACA,MORELOS,W0072,7,9934.0,C,7,SUC. PARQUES POLANCO,9934,D DIV RB METRO NORTE,9764,MN02 - REFORMA,18.9603615,-99.2456904
1-674270-WD,F,76120,QUERETARO,QUERETARO,W3701,370,9931.0,S,370,SUC. CENTRO QUERETARO,9931,D DIV RB CENTRO,6607,C03 - QUERETARO,20.6337513,-100.434364
1-846480-VS,M,15530,VENUSTIANO CARRANZA,CIUDAD DE MEXICO,V0066,47,4831.0,C,47,SUC. ZARAGOZA,4831,D DIV RB METRO SUR,5226,MS10 - AEROPUERTO,19.4336732,-99.0982515
1-130107-TF,F,91809,VERACRUZ,VERACRUZ DE IGNACIO DE LA LLAVE,X1202,1120,9933.0,S,1120,SUC. 5 DE MAYO,9933,D DIV RB  SUR,5219,S05 - VERACRUZ,19.2042142,-96.2004377
1-863580-LE,M,73160,HUAUCHINANGO,PUEBLA,W3272,327,9933.0,C,327,SUC. HUAUCHINANGO PUEBLA,9933,D DIV RB  SUR,8611,S06 - POZA RICA,20.1762623,-97.9945056
1-724634-TD,M,8500,IZTACALCO,CIUDAD DE MEXICO,Z0193,3019,9934.0,S,3019,SUC. POLITECNICO,9934,D DIV RB METRO NORTE,5206,MN06 - LINDAVISTA,19.402507,-99.0687326
1-691159-JV,F,22000,TIJUANA,BAJA CALIFORNIA,W1353,135,6777.0,S,135,SUC. RIO TIJUANA,6777,D DIV  RB NOROESTE,7402,NO01 - TIJUANA,32.5350129,-117.0426159
1-706097-LW,F,22400,TIJUANA,BAJA CALIFORNIA,W1233,123,6777.0,C,123,SUC. MACROPLAZA TIJUANA,6777,D DIV  RB NOROESTE,7402,NO01 - TIJUANA,32.5383471,-117.0076203
1-159701-AV,M,22000,TIJUANA,BAJA CALIFORNIA,W1233,123,6777.0,C,123,SUC. MACROPLAZA TIJUANA,6777,D DIV  RB NOROESTE,7402,NO01 - TIJUANA,32.5350129,-117.0426159
1-767573-EV,M,54040,TLALNEPANTLA,MEXICO,W4352,435,9934.0,C,435,SUC.VIVEROS DE LA LOMA,9934,D DIV RB METRO NORTE,5205,MN04 - SATELITE,19.5436636,-99.2297436
1-987257-MY,M,3300,BENITO JUAREZ,CIUDAD DE MEXICO,V0003,835,4831.0,C,835,SUC. PLAZA DE LA CONSTITUCION,4831,D DIV RB METRO SUR,5202,MS02 - CENTRO,19.3625435,-99.1499789
1-713089-WO,M,14100,TLALPAN,CIUDAD DE MEXICO,W0994,99,9934.0,D,99,SUC. TORRE HSBC,9934,D DIV RB METRO NORTE,9764,MN02 - REFORMA,19.2925866,-99.2337774
1-406673-XR,M,41304,TLAPA,GUERRERO,W3292,329,9933.0,D,329,SUC. TLAPA GUERRERO,9933,D DIV RB  SUR,5225,S08 - GUERRERO,17.5433771,-98.568269
1-254301-JU,F,60950,LAZARO CARDENAS,MICHOACAN DE OCAMPO,W1869,186,6150.0,C,186,SUC. LAZARO CARDENAS,6150,D DIV RB OCCIDENTE,6526,O07 - MORELIA,17.9588559,-102.1957335
1-943362-SK,F,23079,LA PAZ,BAJA CALIFORNIA SUR,W6428,642,9934.0,S,642,SUC. EJERCITO NACIONAL,9934,D DIV RB METRO NORTE,9764,MN02 - REFORMA,24.1233018,-110.3204884
1-301078-OZ,M,59620,ZAMORA,MICHOACAN DE OCAMPO,V0092,292,6150.0,C,292,SUC. ZAMORA,6150,D DIV RB OCCIDENTE,6526,O07 - MORELIA,20.0075444,-102.3157383
1-997363-OV,M,47170,SAN JULIAN,JALISCO,W1653,165,6150.0,C,165,SUC. SAN JULIAN,6150,D DIV RB OCCIDENTE,6053,O05 - ALTOS JALISCO,21.0086847,-102.1831758
1-778810-LH,M,6780,CUAUHTEMOC,CIUDAD DE MEXICO,W0243,24,4831.0,C,24,SUC. ALAMOS,4831,D DIV RB METRO SUR,5202,MS02 - CENTRO,19.4056238,-99.1490673
1-354443-AR,M,47470,LAGOS DE MORENO,JALISCO,W1518,151,9931.0,U,151,SUC. LAGOS DE MORENO,9931,D DIV RB CENTRO,6204,C01 - LEON,21.3455262,-101.9399811
1-186815-YQ,M,28060,COLIMA,COLIMA,V0393,172,6150.0,C,172,SUC. COLIMA CENTRO,6150,D DIV RB OCCIDENTE,6044,O06 - COLIMA,19.2334663,-103.7129349
1-992903-XA,F,45500,TLAQUEPAQUE,JALISCO,W1192,119,6150.0,S,119,SUC. TLAQUEPAQUE,6150,D DIV RB OCCIDENTE,6049,O03 - GUADALAJARA,20.6383947,-103.3105316
1-276267-HJ,F,91098,XALAPA,VERACRUZ DE IGNACIO DE LA LLAVE,X9148,1914,9933.0,C,1914,SUC. CARDEL,9933,D DIV RB  SUR,8471,S04 - XALAPA,19.4975638,-96.8859267
1-317697-AG,M,45140,ZAPOPAN,JALISCO,V0112,714,6150.0,C,714,SUC. CONCENTRO,6150,D DIV RB OCCIDENTE,6135,O01 - GUADALAJARA,20.7240753,-103.4055355
1-451931-ER,M,44757,GUADALAJARA,JALISCO,W1009,100,6150.0,S,100,SUC. OFICINA CENTRAL GUADALAJA,6150,D DIV RB OCCIDENTE,6049,O03 - GUADALAJARA,20.6649104,-103.2947116
1-718103-WW,M,3100,BENITO JUAREZ,CIUDAD DE MEXICO,W0448,44,4831.0,S,44,SUC. INSURGENTES NAPOLES,4831,D DIV RB METRO SUR,5231,MS03 - FELIX CUEVAS,19.3845688,-99.1698933
1-850055-QY,F,76190,QUERETARO,QUERETARO,V0335,400,9931.0,V,400,SUC.JARDINES,9931,D DIV RB CENTRO,6607,C03 - QUERETARO,20.564207,-100.406216
1-434024-NF,F,55120,ECATEPEC DE MORELOS,MEXICO,Z8038,3803,9934.0,S,3803,SUC. PLAZA REFORMA,9934,D DIV RB METRO NORTE,9764,MN02 - REFORMA,19.5367997,-99.0320044
1-570120-[V,M,76900,CORREGIDORA,QUERETARO,V0706,933,9931.0,C,933,SUC. TEJEDA,9931,D DIV RB CENTRO,6607,C03 - QUERETARO,20.5369874,-100.4423407
1-130828-KY,M,97147,MERIDA,YUCATAN,V0419,375,9610.0,C,375,SUC.SANTIAGO,9610,D DIV RB PENINSULAR,9308,P05 - PENINSULA,20.9940825,-89.5891774
1-997551-KB,F,91000,XALAPA,VERACRUZ DE IGNACIO DE LA LLAVE,V0047,1134,9933.0,C,1134,SUC. TORRE HAKIM,9933,D DIV RB  SUR,8471,S04 - XALAPA,19.5272747,-96.9235011
1-496627-D\,F,44210,GUADALAJARA,JALISCO,W1171,117,6150.0,S,117,SUC. TOLSA,6150,D DIV RB OCCIDENTE,6056,O02 - GUADALAJARA,20.7076167,-103.3621793
1-775894-FW,M,24910,CALKINI,CAMPECHE,V0439,902,9610.0,C,902,SUC. VILLAS LA HACIENDA,9610,D DIV RB PENINSULAR,9217,P01 - MERIDA,20.4013946,-90.148652
1-480424-P\,F,63167,TEPIC,NAYARIT,V0425,821,6150.0,S,821,SUC. BOULEVARD (TEPIC),6150,D DIV RB OCCIDENTE,6050,O04 -GUADALAJARA,21.4921842,-104.8984938
1-581404-FS,M,67250,JUAREZ,NUEVO LEON,W2831,283,9932.0,C,283,SUC. LA PASTORA,9932,D DIV RB NORTE,8011,N04 - MONTERREY 4,25.6420382,-100.0914548
1-873715-AZ,F,49000,ZAPOTLAN EL GRANDE,JALISCO,W1539,153,6150.0,C,153,SUC. CD. GUZMAN,6150,D DIV RB OCCIDENTE,6044,O06 - COLIMA,19.7041501,-103.4610006
1-700622-ZV,F,62374,CUERNAVACA,MORELOS,V0112,714,6150.0,C,714,SUC. CONCENTRO,6150,D DIV RB OCCIDENTE,6135,O01 - GUADALAJARA,18.9326826,-99.1949524
1-103471-TN,M,74280,ATLIXCO,PUEBLA,W3252,325,9933.0,S,325,SUC. ATLIXCO,9933,D DIV RB  SUR,5218,S01 - PUEBLA,18.9017193,-98.4455822
1-336547-TA,M,48343,PUERTO VALLARTA,JALISCO,W9402,940,6150.0,C,940,SUC. AEROPUERTO VALLARTA,6150,D DIV RB OCCIDENTE,6050,O04 -GUADALAJARA,20.6290902,-105.2097048
1-241886-WN,M,93340,POZA RICA DE HIDALGO,VERACRUZ DE IGNACIO DE LA LLAVE,V0284,338,9933.0,C,338,SUC. POZA RICA,9933,D DIV RB  SUR,8611,S06 - POZA RICA,20.5297534,-97.4737674
1-544252-ES,F,72190,PUEBLA,PUEBLA,W4561,456,9933.0,C,456,SUC. LAS ANIMAS,9933,D DIV RB  SUR,5218,S01 - PUEBLA,19.0263592,-98.2458054
1-623939-YK,M,47300,YAHUALICA DE GONZALEZ GAL,JALISCO,W1648,164,6150.0,C,164,SUC. YAHUALICA,6150,D DIV RB OCCIDENTE,6053,O05 - ALTOS JALISCO,21.1790507,-102.8851294
1-190953-EA,M,24090,CAMPECHE,CAMPECHE,V0263,306,9610.0,C,306,SUC. CD. DEL CARMEN,9610,D DIV RB PENINSULAR,9308,P05 - PENINSULA,19.8305268,-90.5285092
1-863256-WU,M,75129,NOPALUCAN,PUEBLA,V0271,322,9933.0,C,322,SUC. LARA GRAJALES,9933,D DIV RB  SUR,5236,S03 - PUEBLA-TLAXCALA,19.1283531,-97.8106
1-596140-EO,F,44920,GUADALAJARA,JALISCO,W1262,126,6150.0,C,126,SUC. PLAZA LAS TORRES,6150,D DIV RB OCCIDENTE,6049,O03 - GUADALAJARA,20.6530348,-103.3794857
1-759626-EE,M,32472,JUAREZ,CHIHUAHUA,V0467,209,6777.0,S,209,SUC. FUTURAMA,6777,D DIV  RB NOROESTE,7815,NO12 - CD JUAREZ,31.7165573,-106.3913195
1-470394-DH,F,64348,MONTERREY,NUEVO LEON,V0201,253,9932.0,S,253,SUC. IND. NORTE,9932,D DIV RB NORTE,8150,N01 - MONTERREY 1,25.7408951,-100.3911816
1-199510-DO,M,48900,AUTLAN DE NAVARRO,JALISCO,V0324,159,6150.0,C,159,SUC. AUTLAN SUC. ASIG.III,6150,D DIV RB OCCIDENTE,6044,O06 - COLIMA,19.7676272,-104.3727414
1-191245-WN,M,87410,MATAMOROS,TAMAULIPAS,V8161,263,9932.0,C,263,SUC. LAURO VILLAR,9932,D DIV RB NORTE,8044,N07 - MATAMOROS-REYNOSA,25.867748,-97.490758
1-634548-WI,M,44290,GUADALAJARA,JALISCO,W1121,112,6150.0,C,112,SUC. SANTUARIO,6150,D DIV RB OCCIDENTE,6135,O01 - GUADALAJARA,20.7063152,-103.328802
1-421878-XA,F,28017,COLIMA,COLIMA,V0408,1961,6150.0,C,1961,SUC. SEVILLA DEL RIO,6150,D DIV RB OCCIDENTE,6044,O06 - COLIMA,19.26084,-103.7175839
1-623383-OR,F,45609,TLAQUEPAQUE,JALISCO,W3051,305,6150.0,C,305,SUC. LAS AGUILAS,6150,D DIV RB OCCIDENTE,6135,O01 - GUADALAJARA,20.5967606,-103.4190974
1-746458-OH,F,6010,CUAUHTEMOC,CIUDAD DE MEXICO,V0346,6,4831.0,C,6,SUC. DONCELES,4831,D DIV RB METRO SUR,5202,MS02 - CENTRO,19.4401912,-99.1357031
1-695409-PO,F,47270,ENCARNACION DE DIAZ,JALISCO,W1562,156,9931.0,V,156,SUC. ENCARNACION,9931,D DIV RB CENTRO,6204,C01 - LEON,21.5320748,-102.2376678
1-166742-WU,M,54060,TLALNEPANTLA DE BAZ,MEXICO,V0578,13,9934.0,S,13,SUC. TLALNEPANTLA,9934,D DIV RB METRO NORTE,5238,MN07 - CUAUTITLAN,19.5320516,-99.2135931
1-257693-FB,M,21960,MEXICALI,BAJA CALIFORNIA,W1463,146,6777.0,C,146,SUC. CD. MORELOS,6777,D DIV  RB NOROESTE,7611,NO03 - MEXICALI,32.6357703,-114.850705
1-789522-[C,M,90500,HUAMANTLA,TLAXCALA,W3283,328,9933.0,C,328,SUC. HUAMANTLA,9933,D DIV RB  SUR,5236,S03 - PUEBLA-TLAXCALA,19.3136011,-97.9221877
1-498027-[I,F,44910,GUADALAJARA,JALISCO,W1262,126,6150.0,C,126,SUC. PLAZA LAS TORRES,6150,D DIV RB OCCIDENTE,6049,O03 - GUADALAJARA,20.6466877,-103.3568286
1-648168-[B,M,25030,SALTILLO,COAHUILA DE ZARAGOZA,W2428,242,9932.0,S,242,SUC. V. CARRANZA,9932,D DIV RB NORTE,8210,N10 - SALTILLO,25.4118068,-100.9819929
1-614133-RD,M,91500,COATEPEC,VERACRUZ DE IGNACIO DE LA LLAVE,V0227,1914,9933.0,C,1914,SUC. CARDEL,9933,D DIV RB  SUR,8471,S04 - XALAPA,19.454938,-96.9535703
1-632023-ZO,M,44210,GUADALAJARA,JALISCO,W1209,120,6150.0,C,120,SUC. PLAZA PATRIA,6150,D DIV RB OCCIDENTE,6049,O03 - GUADALAJARA,20.7076167,-103.3621793
1-578199-SS,M,4700,COYOACAN,CIUDAD DE MEXICO,V0651,99,9934.0,C,99,SUC. TORRE HSBC,9934,D DIV RB METRO NORTE,9764,MN02 - REFORMA,19.3081341,-99.1680962
1-860656-NI,F,21188,MEXICALI,BAJA CALIFORNIA,W1488,148,6777.0,S,148,SUC. BENITO JUAREZ,6777,D DIV  RB NOROESTE,7611,NO03 - MEXICALI,32.6207539,-115.5151569
1-657555-DQ,F,23434,LOS CABOS,BAJA CALIFORNIA SUR,W1653,165,6150.0,C,165,SUC. SAN JULIAN,6150,D DIV RB OCCIDENTE,6053,O05 - ALTOS JALISCO,23.1665366,-109.7036052
1-605243-GY,F,30780,TAPACHULA,CHIAPAS,V0301,360,9610.0,C,360,SUC. TAPACHULA CENTRO,9610,D DIV RB PENINSULAR,9105,P03 - CHIAPAS,14.8929481,-92.2489058
1-561855-VD,M,14390,TLALPAN,CIUDAD DE MEXICO,W0678,67,4831.0,S,67,SUC. COAPLAZA,4831,D DIV RB METRO SUR,5215,MS07 - XOCHIMILCO,19.28875,-99.1180726
1-654296-YC,M,4480,COYOACAN,CIUDAD DE MEXICO,Z0802,3080,9934.0,S,3080,SUC. SAMARA,9934,D DIV RB METRO NORTE,5235,MN03 - SANTA FE,19.3265988,-99.1223431
1-683177-BI,M,11000,MIGUEL HIDALGO,CIUDAD DE MEXICO,V0529,6994,9934.0,C,6994,SUC. SEGMENTOS REFORMA,9934,D DIV RB METRO NORTE,9764,MN02 - REFORMA,19.4216613,-99.2256635
1-575103-EE,F,15300,VENUSTIANO CARRANZA,CIUDAD DE MEXICO,W0995,99,9934.0,C,99,SUC. TORRE HSBC,9934,D DIV RB METRO NORTE,9764,MN02 - REFORMA,19.4436767,-99.1088199
1-642121-ZA,F,45260,IXTLAHUACAN DEL RIO,JALISCO,W1764,176,6150.0,C,176,SUC. IXTLAHUACAN,6150,D DIV RB OCCIDENTE,6053,O05 - ALTOS JALISCO,20.863251,-103.239534
1-915703-GN,M,60300,LOS REYES,MICHOACAN DE OCAMPO,W2975,297,6150.0,C,297,SUC. LOS REYES,6150,D DIV RB OCCIDENTE,6526,O07 - MORELIA,19.5894418,-102.4727906
1-619667-WX,F,44600,GUADALAJARA,JALISCO,X8844,1884,9610.0,S,1884,SUC. CENTRAL DE ABASTOS,9610,D DIV RB PENINSULAR,9236,P04 - CANCUN,20.6854385,-103.3721518
1-874825-UF,F,45519,SAN PEDRO TLAQUEPAQUE,JALISCO,V0430,119,6150.0,S,119,SUC. TLAQUEPAQUE,6150,D DIV RB OCCIDENTE,6049,O03 - GUADALAJARA,20.6414896,-103.2990635
1-844653-SH,M,28030,COLIMA,COLIMA,W1882,188,6150.0,C,188,SUC. SAN FRANCISCO COLIMA,6150,D DIV RB OCCIDENTE,6044,O06 - COLIMA,19.2544777,-103.7239391
1-122695-FH,M,6800,CUAUHTEMOC,CIUDAD DE MEXICO,W0164,16,9934.0,C,16,SUC. MEDELLIN,9934,D DIV RB METRO NORTE,5224,MN05 - CONDESA ROMA,19.416487,-99.138495
1-269873-A[,M,4330,COYOACAN,CIUDAD DE MEXICO,W0381,38,4831.0,C,38,SUC. PLAZA CANTIL,4831,D DIV RB METRO SUR,5215,MS07 - XOCHIMILCO,19.3382538,-99.1537392
1-668279-KD,M,53100,NAUCALPAN,MEXICO,W4942,494,9934.0,C,494,SUC.CTRO.COMERCIAL SANTACRUZ,9934,D DIV RB METRO NORTE,5205,MN04 - SATELITE,19.5096466,-99.2388896
1-816878-ZU,M,7670,GUSTAVO A MADERO,CIUDAD DE MEXICO,V8157,910,9934.0,C,910,SUC. TORRES LINDAVISTA,9934,D DIV RB METRO NORTE,5206,MN06 - LINDAVISTA,19.5220299,-99.156044
1-599952-OD,M,47600,TEPATITLAN DE MORELOS,JALISCO,Z5582,3558,6150.0,C,3558,SUC.PLAZA GALERIAS GUADALAJARA,6150,D DIV RB OCCIDENTE,6135,O01 - GUADALAJARA,20.8171289,-102.7618161
1-443277-FB,F,72180,PUEBLA,PUEBLA,W7854,785,9933.0,C,785,SUC. AMALUCAN,9933,D DIV RB  SUR,5223,S02 - PUEBLA,19.0464758,-98.2379595
1-614665-YK,M,22200,TIJUANA,BAJA CALIFORNIA,W1322,132,6777.0,C,132,SUC. PLAYAS,6777,D DIV  RB NOROESTE,7489,NO02 - PACIFICO NORTE,32.5205083,-116.8911223
1-284786-LF,F,4460,COYOACAN,CIUDAD DE MEXICO,W0322,32,4831.0,S,32,SUC. PREMIER,4831,D DIV RB METRO SUR,5215,MS07 - XOCHIMILCO,19.3310267,-99.1335754
1-478467-NH,M,3910,BENITO JUAREZ,CIUDAD DE MEXICO,X9204,1920,9934.0,D,1920,SUC. COLIMA,9934,D DIV RB METRO NORTE,5224,MN05 - CONDESA ROMA,19.3739952,-99.1897651
1-747036-KT,F,4100,COYOACAN,CIUDAD DE MEXICO,V0645,1920,9934.0,C,1920,SUC. COLIMA,9934,D DIV RB METRO NORTE,5224,MN05 - CONDESA ROMA,19.351877,-99.1618375
1-865881-ZE,M,64000,MONTERREY,NUEVO LEON,W4158,415,9932.0,D,415,SUC.TORRES BRISAS,9932,D DIV RB NORTE,8011,N04 - MONTERREY 4,25.6654298,-100.3101631
1-372957-JX,F,59000,SAHUAYO,MICHOACAN DE OCAMPO,W2963,296,6150.0,S,296,SUC. SAHUAYO,6150,D DIV RB OCCIDENTE,6053,O05 - ALTOS JALISCO,20.0573928,-102.7255972
1-843268-FR,F,4530,COYOACAN,CIUDAD DE MEXICO,V0657,594,9934.0,S,594,SUC. CONDESA,9934,D DIV RB METRO NORTE,5224,MN05 - CONDESA ROMA,19.3054638,-99.1887152
1-897402-Q[,M,7199,GUSTAVO A MADERO,CIUDAD DE MEXICO,V0397,602,9934.0,C,602,SUC. ACUEDUCTO DE GUADALUPE,9934,D DIV RB METRO NORTE,5209,MN09 - ECATEPEC,19.5443222,-99.1325238
1-823181-EW,M,28000,COLIMA,COLIMA,W1009,100,6150.0,S,100,SUC. OFICINA CENTRAL GUADALAJA,6150,D DIV RB OCCIDENTE,6049,O03 - GUADALAJARA,19.2407185,-103.7247395
1-374392-UC,M,44970,GUADALAJARA,JALISCO,W1071,107,6150.0,C,107,SUC. MEXICALTZINGO,6150,D DIV RB OCCIDENTE,6056,O02 - GUADALAJARA,20.6188654,-103.345458
1-801352-FU,M,47270,ENCARNACION DE DIAZ,JALISCO,W1561,156,9931.0,C,156,SUC. ENCARNACION,9931,D DIV RB CENTRO,6204,C01 - LEON,21.5320748,-102.2376678
1-712288-V[,M,11470,MIGUEL HIDALGO,CIUDAD DE MEXICO,W0995,99,9934.0,S,99,SUC. TORRE HSBC,9934,D DIV RB METRO NORTE,9764,MN02 - REFORMA,19.4494596,-99.2035906
1-616087-GQ,M,1410,ALVARO OBREGON,CIUDAD DE MEXICO,W0102,10,9934.0,C,10,SUC. SAN COSME,9934,D DIV RB METRO NORTE,9764,MN02 - REFORMA,19.3794582,-99.2067434
1-748120-Y\,M,57710,NEZAHUALCOYOTL,MEXICO,W0998,99,9934.0,S,99,SUC. TORRE HSBC,9934,D DIV RB METRO NORTE,9764,MN02 - REFORMA,19.3876423,-99.0076231
1-162259-HG,F,7750,GUSTAVO A MADERO,CIUDAD DE MEXICO,W0345,34,9934.0,S,34,SUC. VALLEJO,9934,D DIV RB METRO NORTE,5206,MN06 - LINDAVISTA,19.492671,-99.1505451
1-976652-EB,F,52786,HUIXQUILUCAN,MEXICO,W0502,50,9934.0,S,50,SUC. AZCAPOTZALCO,9934,D DIV RB METRO NORTE,5206,MN06 - LINDAVISTA,19.4059785,-99.2684107
1-724622-HA,F,9030,IZTAPALAPA,CIUDAD DE MEXICO,V0693,44,4831.0,C,44,SUC. INSURGENTES NAPOLES,4831,D DIV RB METRO SUR,5231,MS03 - FELIX CUEVAS,19.3849456,-99.0862705
1-640052-SM,F,49700,SAN GABRIEL,JALISCO,W1673,167,6150.0,C,167,SUC. TONAYA,6150,D DIV RB OCCIDENTE,6044,O06 - COLIMA,19.747949,-103.7591639
1-874867-GL,F,63030,TEPIC,NAYARIT,W4584,458,6150.0,C,458,SUC. TEPIC INSURGENTES,6150,D DIV RB OCCIDENTE,6050,O04 -GUADALAJARA,21.5162844,-104.8809477
1-878087-OZ,M,87390,MATAMOROS,TAMAULIPAS,W7882,788,9932.0,C,788,SUC. SORIANA (RIO),9932,D DIV RB NORTE,8044,N07 - MATAMOROS-REYNOSA,25.8412207,-97.5025412
1-922997-DZ,M,7090,GUSTAVO A MADERO,CIUDAD DE MEXICO,Z0191,3019,9934.0,C,3019,SUC. POLITECNICO,9934,D DIV RB METRO NORTE,5206,MN06 - LINDAVISTA,19.5101386,-99.1005042
1-363847-VC,F,45350,ARENAL,JALISCO,W6952,695,6150.0,C,695,SUC. ATEMAJAC,6150,D DIV RB OCCIDENTE,6135,O01 - GUADALAJARA,20.758078,-103.6874441
1-821918-SK,F,87458,MATAMOROS,TAMAULIPAS,W2578,257,9932.0,C,257,SUC. CENTRO MATAMOROS,9932,D DIV RB NORTE,8044,N07 - MATAMOROS-REYNOSA,25.8474885,-97.4919166
1-975219-BE,M,45160,ZAPOPAN,JALISCO,X1002,1100,9934.0,S,1100,SUC. AMERICAS OBSERVATORIO,9934,D DIV RB METRO NORTE,5224,MN05 - CONDESA ROMA,20.7124464,-103.3831334
1-480655-SA,M,52600,TIANGUISTENCO,MEXICO,W0994,99,9934.0,C,99,SUC. TORRE HSBC,9934,D DIV RB METRO NORTE,9764,MN02 - REFORMA,19.1776361,-99.4680957
1-224830-VX,M,32250,JUAREZ,CHIHUAHUA,V0588,206,6777.0,C,206,SUC. 5 MAYO,6777,D DIV  RB NOROESTE,7815,NO12 - CD JUAREZ,31.7086795,-106.4674368
1-606137-WG,M,34100,DURANGO,DURANGO,V0688,859,9932.0,C,859,SUC. LOMAS DEL PARQUE,9932,D DIV RB NORTE,7903,N11 - DURANGO,24.0205428,-104.6859791
1-367737-IM,M,50010,TOLUCA,MEXICO,W0948,94,9934.0,C,94,SUC. ZONA INDUSTRIAL,9934,D DIV RB METRO NORTE,5207,MN01 - TOLUCA,19.3116101,-99.6422861
1-360681-R[,F,3400,BENITO JUAREZ,CIUDAD DE MEXICO,Z0093,3009,4831.0,S,3009,SUC. GLORIETA VERTIZ,4831,D DIV RB METRO SUR,5202,MS02 - CENTRO,19.4003876,-99.141001
1-727896-GL,M,31220,CHIHUAHUA,CHIHUAHUA,W3958,395,6777.0,C,395,SUC.TECNOLOGICO,6777,D DIV  RB NOROESTE,7701,NO10 - CHIHUAHUA CENTRO,28.585043,-106.1410966
1-882800-OB,M,74020,SAN MARTIN TEXMELUCAN,PUEBLA,W3248,324,9933.0,C,324,SUC. SAN MARTIN TEX,9933,D DIV RB  SUR,5236,S03 - PUEBLA-TLAXCALA,19.2896,-98.4382906
1-838496-FS,M,22195,TIJUANA,BAJA CALIFORNIA,V1035,127,6777.0,C,127,SUC. LAS PALMAS,6777,D DIV  RB NOROESTE,7402,NO01 - TIJUANA,32.4947601,-116.984318
1-232556-YP,M,45222,ZAPOPAN,JALISCO,V0438,714,6150.0,C,714,SUC. CONCENTRO,6150,D DIV RB OCCIDENTE,6135,O01 - GUADALAJARA,20.7162988,-103.4759992
1-493534-OP,M,61850,LA HUACANA,MICHOACAN DE OCAMPO,W2934,293,6150.0,S,293,SUC. MORELIA,6150,D DIV RB OCCIDENTE,6526,O07 - MORELIA,18.9633559,-101.8080068
1-218111-SU,F,76190,SANTIAGO DE QUERETARO,QUERETARO,V0335,400,9931.0,C,400,SUC.JARDINES,9931,D DIV RB CENTRO,6607,C03 - QUERETARO,20.564207,-100.406216
1-218945-CU,F,7970,GUSTAVO A MADERO,CIUDAD DE MEXICO,V0584,42,4831.0,C,42,SUC. AEROPUERTO SALA A,4831,D DIV RB METRO SUR,5226,MS10 - AEROPUERTO,19.4521861,-99.0713174
1-523040-PJ,M,72830,SAN ANDRES CHOLULA,PUEBLA,V0052,310,9933.0,C,310,SUC. LA PAZ,9933,D DIV RB  SUR,5218,S01 - PUEBLA,18.9994499,-98.2627418
1-790780-FA,F,85870,NAVOJOA,SONORA,V0471,192,6777.0,C,192,SUC. NAVOJOA,6777,D DIV  RB NOROESTE,7101,NO05 - CD OBREGON,27.0601179,-109.444071
1-658083-ZH,F,44610,GUADALAJARA,JALISCO,Z8083,3808,6150.0,S,3808,SUC. SAO PAULO,6150,D DIV RB OCCIDENTE,6049,O03 - GUADALAJARA,20.7011388,-103.3681418
1-163749-OL,M,56600,CHALCO,MEXICO,W0303,30,4831.0,C,30,SUC. CHALCO,4831,D DIV RB METRO SUR,5213,MS09 - IZTAPALAPA,19.2556708,-98.8958491
1-525666-DL,M,49700,SAN GABRIEL,JALISCO,W1661,166,6150.0,C,166,SUC. SAN GABRIEL,6150,D DIV RB OCCIDENTE,6044,O06 - COLIMA,19.747949,-103.7591639
1-133543-PG,M,48350,PUERTO VALLARTA,JALISCO,V0072,940,6150.0,C,940,SUC. AEROPUERTO VALLARTA,6150,D DIV RB OCCIDENTE,6050,O04 -GUADALAJARA,20.617437,-105.2299067
1-313720-PN,F,63157,TEPIC,NAYARIT,W1718,171,6150.0,S,171,SUC. TEPIC CENTRO,6150,D DIV RB OCCIDENTE,6050,O04 -GUADALAJARA,21.4917577,-104.8848295
1-340248-ZJ,M,33890,HIDALGO DEL PARRAL,CHIHUAHUA,W2162,216,6777.0,C,216,SUC. PARRAL,6777,D DIV  RB NOROESTE,7701,NO10 - CHIHUAHUA CENTRO,26.9255396,-105.6450333
1-222316-IM,M,1049,ALVARO OBREGON,CIUDAD DE MEXICO,W0283,28,4831.0,S,28,SUC. SAN ANGEL,4831,D DIV RB METRO SUR,5212,MS08 - COYOACAN,19.3533977,-99.195545
1-451065-MY,M,88000,NUEVO LAREDO,TAMAULIPAS,W2664,266,9932.0,S,266,SUC. LAREDO,9932,D DIV RB NORTE,8712,N08 - NUEVO LAREDO,27.48842,-99.5071893
1-703063-NJ,F,66274,SAN PEDRO GARZA GARCIA,NUEVO LEON,W2553,255,9932.0,C,255,SUC. VALLE,9932,D DIV RB NORTE,8003,N02 - MONTERREY 2,25.6314173,-100.3353121
1-107907-OH,M,66250,SAN PEDRO GARZA GARCIA,NUEVO LEON,W5292,529,9932.0,C,529,SUC. BOSQUES DEL VALLE,9932,D DIV RB NORTE,8003,N02 - MONTERREY 2,25.6350886,-100.3756614
1-882668-Q\,M,30700,TAPACHULA,CHIAPAS,V0301,360,9610.0,C,360,SUC. TAPACHULA CENTRO,9610,D DIV RB PENINSULAR,9105,P03 - CHIAPAS,14.9099799,-92.2652784
1-441883-GX,F,44430,GUADALAJARA,JALISCO,W1168,116,6150.0,C,116,SUC. GONZALEZ GALLO,6150,D DIV RB OCCIDENTE,6056,O02 - GUADALAJARA,20.6599875,-103.3326803
1-360894-OK,M,14308,TLALPAN,CIUDAD DE MEXICO,V0506,3013,4831.0,C,3013,SUC. CENTRO COMERCIAL PERISUR,4831,D DIV RB METRO SUR,5214,MS05 - PEDREGAL,19.2995393,-99.122918
1-319066-GM,M,47600,TEPATITLAN DE MORELOS,JALISCO,W1583,158,6150.0,S,158,SUC. TEPATITLAN,6150,D DIV RB OCCIDENTE,6053,O05 - ALTOS JALISCO,20.8171289,-102.7618161
1-151159-BE,M,4630,COYOACAN,CIUDAD DE MEXICO,W0011,1,4831.0,S,1,SUC. JUAREZ.,4831,D DIV RB METRO SUR,5202,MS02 - CENTRO,19.3215494,-99.147445
1-147947-VZ,M,77035,OTHON P BLANCO,QUINTANA ROO,W3795,379,9610.0,C,379,SUC.CHETUMAL,9610,D DIV RB PENINSULAR,9308,P05 - PENINSULA,18.5075272,-88.3097296
1-961212-GM,F,46600,AMECA,JALISCO,W1913,191,6150.0,C,191,SUC. AMECA,6150,D DIV RB OCCIDENTE,6053,O05 - ALTOS JALISCO,20.544341,-104.0444044
1-316974-GO,M,74000,SAN MARTIN TEXMELUCAN,PUEBLA,W3248,324,9933.0,S,324,SUC. SAN MARTIN TEX,9933,D DIV RB  SUR,5236,S03 - PUEBLA-TLAXCALA,19.2845406,-98.4375479
1-360841-TA,M,54740,CUAUTITLAN IZCALLI,MEXICO,W0954,95,9934.0,C,95,SUC.  PLAZA IZCALLI,9934,D DIV RB METRO NORTE,5238,MN07 - CUAUTITLAN,19.6460373,-99.2114439
1-306284-SE,M,43961,EMILIANO ZAPATA,HIDALGO,V0038,1977,9934.0,C,1977,SUC. ZONA PLATEADA PACHUCA,9934,D DIV RB CENTRO,5908,C06 - PACHUCA,19.6999281,-98.580555
1-577269-LX,M,57200,NEZAHUALCOYOTL,MEXICO,W5672,567,4831.0,S,567,SUC. PLAZA JARDN,4831,D DIV RB METRO SUR,5213,MS09 - IZTAPALAPA,19.432371,-99.0397755
1-755962-S\,F,82010,MAZATLAN,SINALOA,V0203,204,6777.0,V,204,SUC. MAZATLAN CARRASCO,6777,D DIV  RB NOROESTE,7218,NO08 - SINALOA NORTE,23.2200125,-106.4174456
1-255718-AV,F,48740,EL GRULLO,JALISCO,W1612,161,6150.0,C,161,SUC. EL GRULLO,6150,D DIV RB OCCIDENTE,6044,O06 - COLIMA,19.8087296,-104.2147854
1-418695-XT,M,72370,PUEBLA,PUEBLA,V0594,3032,9933.0,C,3032,SUC. REFORMA CENTRO,9933,D DIV RB  SUR,5223,S02 - PUEBLA,19.044657,-98.176224
1-333328-RM,M,97205,MERIDA,YUCATAN,Z0602,3060,9610.0,C,3060,SUC. CAMPESTRE,9610,D DIV RB PENINSULAR,9217,P01 - MERIDA,21.0115934,-89.6351833
1-923560-LX,M,14420,TLALPAN,CIUDAD DE MEXICO,V0195,952,4831.0,S,952,SUC. PLAZA TLAHUAC,4831,D DIV RB METRO SUR,5215,MS07 - XOCHIMILCO,19.2761586,-99.1827431
1-315002-WT,F,45500,TLAQUEPAQUE,JALISCO,W1198,119,6150.0,S,119,SUC. TLAQUEPAQUE,6150,D DIV RB OCCIDENTE,6049,O03 - GUADALAJARA,20.6383947,-103.3105316
1-516923-JM,M,48760,TONAYA,JALISCO,V8154,167,6150.0,C,167,SUC. TONAYA,6150,D DIV RB OCCIDENTE,6044,O06 - COLIMA,19.7834143,-103.9679376
1-935523-TE,M,49090,ZAPOTLAN EL GRANDE,JALISCO,W8248,824,6150.0,C,824,SUC. PLAZA ZAPOTLAN,6150,D DIV RB OCCIDENTE,6044,O06 - COLIMA,19.6929549,-103.4546408
1-693781-LP,M,50770,IXTLAHUACA,MEXICO,W0601,60,4831.0,C,60,SUC. CENTRAL DE ABASTOS,4831,D DIV RB METRO SUR,5226,MS10 - AEROPUERTO,19.5510395,-99.8339043
1-883419-BE,F,75700,TEHUACAN,PUEBLA,W3202,320,9933.0,C,320,SUC. TEHUACAN,9933,D DIV RB  SUR,5223,S02 - PUEBLA,18.4629439,-97.3948086
1-322855-YO,M,1900,ALVARO OBREGON,CIUDAD DE MEXICO,V0034,537,4831.0,C,537,SUC. FELIX CUEVAS,4831,D DIV RB METRO SUR,5231,MS03 - FELIX CUEVAS,19.3323544,-99.2040742
1-920075-GV,M,97080,MERIDA,YUCATAN,W3743,374,9610.0,C,374,SUC.MONTEJO,9610,D DIV RB PENINSULAR,9217,P01 - MERIDA,20.9835928,-89.6138625
1-274332-CL,M,47470,LAGOS DE MORENO,JALISCO,V0149,151,9931.0,V,151,SUC. LAGOS DE MORENO,9931,D DIV RB CENTRO,6204,C01 - LEON,21.3455262,-101.9399811
1-254940-WB,F,44250,GUADALAJARA,JALISCO,W1764,176,6150.0,C,176,SUC. IXTLAHUACAN,6150,D DIV RB OCCIDENTE,6053,O05 - ALTOS JALISCO,20.7325237,-103.322278
1-336337-TT,M,54140,TLALNEPANTLA,MEXICO,W0998,99,9934.0,C,99,SUC. TORRE HSBC,9934,D DIV RB METRO NORTE,9764,MN02 - REFORMA,19.5352438,-99.1675487
1-672758-YJ,M,5000,CUAJIMALPA DE MORELOS,CIUDAD DE MEXICO,X1488,1148,9934.0,C,1148,SUC. PABELLON BOSQUES,9934,D DIV RB METRO NORTE,5235,MN03 - SANTA FE,19.3577543,-99.2931966
1-792665-FF,M,31540,CUAUHTEMOC,CHIHUAHUA,W2141,214,6777.0,C,214,SUC. CUAUHTEMOC,6777,D DIV  RB NOROESTE,7701,NO10 - CHIHUAHUA CENTRO,28.4197839,-106.8430231
1-761467-O[,F,7270,GUSTAVO A MADERO,CIUDAD DE MEXICO,W4303,430,9934.0,C,430,SUC. PLAZA ECATEPEC,9934,D DIV RB METRO NORTE,5209,MN09 - ECATEPEC,19.5192992,-99.1435578
1-308379-K\,M,52170,METEPEC,MEXICO,Z0278,3027,9934.0,C,3027,SUC. HIDALGO PONIENTE,9934,D DIV RB METRO NORTE,5207,MN01 - TOLUCA,19.285077,-99.5857465
1-275014-RZ,M,16000,XOCHIMILCO,CIUDAD DE MEXICO,W0058,5,4831.0,S,5,SUC. XOCHIMILCO,4831,D DIV RB METRO SUR,5215,MS07 - XOCHIMILCO,19.2691576,-99.1047491
1-853583-QO,F,54766,CUAUTITLAN IZCALLI,MEXICO,W0688,68,9934.0,S,68,SUC. VILLAS DE LA HACIENDA,9934,D DIV RB METRO NORTE,5238,MN07 - CUAUTITLAN,19.6152304,-99.2708868
1-608849-AY,M,53125,NAUCALPAN,MEXICO,W6872,687,9934.0,C,687,SUC. FUENTES DE SATELITE,9934,D DIV RB METRO NORTE,5205,MN04 - SATELITE,19.5160706,-99.2585359
1-609965-MF,M,52920,ATIZAPAN DE ZARAGOZA,MEXICO,W0518,51,9934.0,S,51,SUC. VALLE DORADO,9934,D DIV RB METRO NORTE,5238,MN07 - CUAUTITLAN,19.5809483,-99.2249602
1-104371-XW,M,54080,TLALNEPANTLA,MEXICO,V0054,26,4831.0,C,26,SUC. GUARDIOLA,4831,D DIV RB METRO SUR,5202,MS02 - CENTRO,19.5129854,-99.2189134
1-222827-VF,F,4250,COYOACAN,CIUDAD DE MEXICO,W0038,3,4831.0,C,3,SUC. MERCED,4831,D DIV RB METRO SUR,5202,MS02 - CENTRO,19.3439116,-99.1271858
1-323887-AE,M,44560,GUADALAJARA,JALISCO,W1183,118,6150.0,C,118,SUC. PZA. DEL SOL,6150,D DIV RB OCCIDENTE,6049,O03 - GUADALAJARA,20.6437169,-103.3988441
1-794959-W\,F,86750,CENTLA,TABASCO,W3552,355,9610.0,C,355,SUC.FRONTERA,9610,D DIV RB PENINSULAR,9000,P02 - TABASCO,18.5377299,-92.6470033
1-329275-TQ,F,16300,XOCHIMILCO,CIUDAD DE MEXICO,W4998,499,4831.0,S,499,SUC. PERITLALPAN,4831,D DIV RB METRO SUR,5214,MS05 - PEDREGAL,19.2416215,-99.1149021
1-739457-NF,M,11500,MIGUEL HIDALGO,CIUDAD DE MEXICO,V0027,19,9934.0,C,19,SUC. POLANCO,9934,D DIV RB METRO NORTE,9764,MN02 - REFORMA,19.4437197,-99.2072003
1-737215-ZS,F,7450,GUSTAVO A MADERO,CIUDAD DE MEXICO,W0404,40,9934.0,C,40,SUC. LINDAVISTA,9934,D DIV RB METRO NORTE,5206,MN06 - LINDAVISTA,19.4807899,-99.0966862
1-851293-JF,M,4200,COYOACAN,CIUDAD DE MEXICO,W0112,11,4831.0,S,11,SUC. COYOACAN,4831,D DIV RB METRO SUR,5212,MS08 - COYOACAN,19.3434191,-99.1360353
1-968481-ZY,F,74400,IZUCAR DE MATAMOROS,PUEBLA,W3194,319,9933.0,S,319,SUC. IZUCAR MATAMOROS,9933,D DIV RB  SUR,5218,S01 - PUEBLA,18.6025388,-98.4701719
1-196586-BV,F,45645,TLAJOMULCO DE ZUNIGA,JALISCO,Z8098,3809,6150.0,C,3809,SUC. SANTA ANITA (JAL),6150,D DIV RB OCCIDENTE,6049,O03 - GUADALAJARA,20.5432909,-103.4662735
1-390495-P[,M,53125,NAUCALPAN,MEXICO,W6872,687,9934.0,C,687,SUC. FUENTES DE SATELITE,9934,D DIV RB METRO NORTE,5205,MN04 - SATELITE,19.5160706,-99.2585359
1-636490-CH,M,45019,ZAPOPAN,JALISCO,V1084,287,9931.0,C,287,SUC. P SAN CARLOS,9931,D DIV RB CENTRO,6210,C05 - S.L.P,20.7266446,-103.4424782
1-923296-K[,F,3100,BENITO JUAREZ,CIUDAD DE MEXICO,W0633,63,4831.0,S,63,SUC. HOLBEIN,4831,D DIV RB METRO SUR,5231,MS03 - FELIX CUEVAS,19.3845688,-99.1698933
1-834714-XU,F,76146,QUERETARO,QUERETARO,V0495,982,9934.0,C,982,SUC. ZONA AZUL,9934,D DIV RB METRO NORTE,5205,MN04 - SATELITE,20.6171546,-100.3472391
1-522978-DW,M,47310,YAHUALICA DE GONZALEZ GAL,JALISCO,W1642,164,6150.0,C,164,SUC. YAHUALICA,6150,D DIV RB OCCIDENTE,6053,O05 - ALTOS JALISCO,21.1358856,-102.981
1-345737-JV,M,49750,TOLIMAN,JALISCO,W1662,166,6150.0,C,166,SUC. SAN GABRIEL,6150,D DIV RB OCCIDENTE,6044,O06 - COLIMA,19.6015724,-103.915237
1-840035-DO,M,85427,GUAYMAS,SONORA,W1874,187,6777.0,C,187,SUC. GUAYMAS,6777,D DIV  RB NOROESTE,7101,NO05 - CD OBREGON,27.9273824,-110.9122055
1-415489-[A,F,45580,TLAQUEPAQUE,JALISCO,W1192,119,6150.0,S,119,SUC. TLAQUEPAQUE,6150,D DIV RB OCCIDENTE,6049,O03 - GUADALAJARA,20.6276437,-103.2905925
1-458649-IA,M,67140,GUADALUPE,NUEVO LEON,W2512,251,9932.0,C,251,SUC. GUADALUPE,9932,D DIV RB NORTE,8150,N01 - MONTERREY 1,25.6668505,-100.26038
1-227939-XR,M,54915,TULTITLAN,MEXICO,W6001,600,9934.0,C,600,SUC. TULTITLAN,9934,D DIV RB METRO NORTE,5238,MN07 - CUAUTITLAN,19.6278042,-99.1702425
1-394251-BE,M,56230,TEXCOCO,MEXICO,Z0733,3073,9934.0,C,3073,SUC. SORIANA TEXCOCO,9934,D DIV RB METRO NORTE,5209,MN09 - ECATEPEC,19.4970832,-98.8671372
1-521910-ST,F,72500,PUEBLA,PUEBLA,W3105,310,9933.0,S,310,SUC. LA PAZ,9933,D DIV RB  SUR,5218,S01 - PUEBLA,19.0289447,-98.1920918
1-149484-CV,M,47675,TEPATITLAN DE MORELOS,JALISCO,V0129,1913,6150.0,C,1913,SUC. GLORIETA JARDINES,6150,D DIV RB OCCIDENTE,6053,O05 - ALTOS JALISCO,20.804714,-102.783778
1-449464-FU,F,55069,ECATEPEC DE MORELOS,MEXICO,V0009,1,4831.0,C,1,SUC. JUAREZ.,4831,D DIV RB METRO SUR,5202,MS02 - CENTRO,19.6438003,-99.0122014
1-774716-FE,M,44620,GUADALAJARA,JALISCO,Z8083,3808,6150.0,C,3808,SUC. SAO PAULO,6150,D DIV RB OCCIDENTE,6049,O03 - GUADALAJARA,20.6935811,-103.3707038
1-635907-XP,M,27010,TORREON,COAHUILA DE ZARAGOZA,V1052,811,9932.0,C,811,SUC. PLAZA CUATRO CAMINOS,9932,D DIV RB NORTE,8727,N09 - TORREON,25.5653961,-103.4224267
1-276208-HT,M,74200,ATLIXCO,PUEBLA,W3252,325,9933.0,S,325,SUC. ATLIXCO,9933,D DIV RB  SUR,5218,S01 - PUEBLA,18.9099346,-98.4339313
1-220886-[[,F,91808,VERACRUZ,VERACRUZ DE IGNACIO DE LA LLAVE,W3368,336,9933.0,U,336,SUC. OF. CENTRAL,9933,D DIV RB  SUR,5219,S05 - VERACRUZ,19.2115967,-96.1942041
1-179328-LF,F,20070,AGUASCALIENTES,AGUASCALIENTES,W2843,284,9931.0,S,284,SUC. CENTRO AGUASCALIENTES,9931,D DIV RB CENTRO,6205,C02 - AGS ZAC,21.8836666,-102.3114909
1-617482-BQ,F,25720,MONCLOVA,COAHUILA DE ZARAGOZA,W2472,247,9932.0,C,247,SUC. MONCLOVA BOULEVARD,9932,D DIV RB NORTE,8210,N10 - SALTILLO,26.9193238,-101.42477
1-402382-Z[,M,77500,BENITO JUAREZ,QUINTANA ROO,X9824,1982,9610.0,S,1982,SUC. PLAZA HOLLYWOOD,9610,D DIV RB PENINSULAR,9236,P04 - CANCUN,21.1670938,-86.8237283
1-257331-IP,F,31304,CHIHUAHUA,CHIHUAHUA,W2181,218,6777.0,S,218,SUC. UNIVERSIDAD,6777,D DIV  RB NOROESTE,7701,NO10 - CHIHUAHUA CENTRO,28.659428,-106.0740686
1-680162-YF,F,3100,BENITO JUAREZ,CIUDAD DE MEXICO,Z0154,3015,4831.0,C,3015,SUC. GALERIAS INSURGENTES,4831,D DIV RB METRO SUR,5212,MS08 - COYOACAN,19.3845688,-99.1698933
1-670294-XG,M,27000,TORREON,COAHUILA DE ZARAGOZA,V1052,811,9932.0,S,811,SUC. PLAZA CUATRO CAMINOS,9932,D DIV RB NORTE,8727,N09 - TORREON,25.5446612,-103.4405666
1-641918-QY,M,4600,COYOACAN,CIUDAD DE MEXICO,W6472,647,9934.0,C,647,SUC. CENTRUM 2000,9934,D DIV RB METRO NORTE,5205,MN04 - SATELITE,19.3131767,-99.1533633
1-600755-FF,M,11510,MIGUEL HIDALGO,CIUDAD DE MEXICO,W0192,19,9934.0,S,19,SUC. POLANCO,9934,D DIV RB METRO NORTE,9764,MN02 - REFORMA,19.4328504,-99.2086834
1-430803-SB,F,54059,TLALNEPANTLA DE BAZ,MEXICO,V0582,3002,9934.0,C,3002,SUC. PLAZA SATELITE,9934,D DIV RB METRO NORTE,5205,MN04 - SATELITE,19.5390637,-99.2331863
1-625235-O\,F,3400,BENITO JUAREZ,CIUDAD DE MEXICO,V0551,26,4831.0,S,26,SUC. GUARDIOLA,4831,D DIV RB METRO SUR,5202,MS02 - CENTRO,19.4003876,-99.141001
1-939793-TT,M,27108,TORREON,COAHUILA DE ZARAGOZA,V0123,424,9932.0,C,424,SUC. LOS ANGELES,9932,D DIV RB NORTE,8727,N09 - TORREON,25.5995824,-103.4058803
1-974526-CJ,F,25270,SALTILLO,COAHUILA DE ZARAGOZA,W2378,237,9932.0,S,237,SUC. OFICINA CENTRAL SALTILLO,9932,D DIV RB NORTE,8210,N10 - SALTILLO,25.443913,-100.979517
1-589495-BJ,M,44900,GUADALAJARA,JALISCO,W1009,100,6150.0,S,100,SUC. OFICINA CENTRAL GUADALAJA,6150,D DIV RB OCCIDENTE,6049,O03 - GUADALAJARA,20.6564541,-103.3692633
1-211263-DM,F,52937,ATIZAPAN DE ZARAGOZA,MEXICO,V0009,511,9934.0,S,511,SUC. MAZARIK,9934,D DIV RB METRO NORTE,9764,MN02 - REFORMA,19.5871891,-99.2753823
1-502178-BG,M,34237,DURANGO,DURANGO,V0065,220,9932.0,S,220,SUC. CENTRO DURANGO,9932,D DIV RB NORTE,7903,N11 - DURANGO,24.0406831,-104.6143742
1-181510-UO,M,45730,VILLA CORONA,JALISCO,W1832,183,6150.0,C,183,SUC. VILLA CORONA,6150,D DIV RB OCCIDENTE,6053,O05 - ALTOS JALISCO,20.4136105,-103.6647475
1-275184-MX,F,27290,TORREON,COAHUILA DE ZARAGOZA,W8092,809,9932.0,S,809,SUC. PASEO DEL TEC,9932,D DIV RB NORTE,8727,N09 - TORREON,25.5082733,-103.4142286
1-823395-ZP,F,97000,MERIDA,YUCATAN,W3743,374,9610.0,C,374,SUC.MONTEJO,9610,D DIV RB PENINSULAR,9217,P01 - MERIDA,20.9688726,-89.6234251
1-286818-LH,F,14250,TLALPAN,CIUDAD DE MEXICO,W0612,61,4831.0,C,61,SUC. ISABEL LA CATOLICA,4831,D DIV RB METRO SUR,5202,MS02 - CENTRO,19.2736958,-99.2106447
1-796928-RO,M,91809,VERACRUZ,VERACRUZ DE IGNACIO DE LA LLAVE,V0279,781,9933.0,C,781,SUC. ZONA NORTE,9933,D DIV RB  SUR,5219,S05 - VERACRUZ,19.2042142,-96.2004377
1-723583-OX,M,89490,CIUDAD MADERO,TAMAULIPAS,W2724,272,9932.0,C,272,SUC. CD. MADERO,9932,D DIV RB  SUR,8619,S09 - TAMPICO-VICTORIA,22.2403667,-97.8404065
1-661120-ME,F,48788,TUXCACUESCO,JALISCO,W1671,167,6150.0,V,167,SUC. TONAYA,6150,D DIV RB OCCIDENTE,6044,O06 - COLIMA,19.7376983,-103.902
1-502708-HE,F,54060,TLALNEPANTLA,MEXICO,W5816,581,9934.0,C,581,SUC. TEQUESQUINAHUAC,9934,D DIV RB METRO NORTE,5238,MN07 - CUAUTITLAN,19.5320516,-99.2135931
1-122092-QN,M,94349,ORIZABA,VERACRUZ DE IGNACIO DE LA LLAVE,W0078,7,9934.0,S,7,SUC. PARQUES POLANCO,9934,D DIV RB METRO NORTE,9764,MN02 - REFORMA,18.8599334,-97.0725568
1-948759-SN,F,2080,AZCAPOTZALCO,CIUDAD DE MEXICO,W0502,50,9934.0,C,50,SUC. AZCAPOTZALCO,9934,D DIV RB METRO NORTE,5206,MN06 - LINDAVISTA,19.4709825,-99.1767813
1-139404-HH,M,7400,GUSTAVO A MADERO,CIUDAD DE MEXICO,V0258,61,4831.0,D,61,SUC. ISABEL LA CATOLICA,4831,D DIV RB METRO SUR,5202,MS02 - CENTRO,19.4882709,-99.0987414
1-686822-ET,M,72830,SAN ANDRES CHOLULA,PUEBLA,W4613,461,9933.0,C,461,SUC. CD.SERDAN,9933,D DIV RB  SUR,5223,S02 - PUEBLA,18.9994499,-98.2627418
1-177808-MR,M,44660,GUADALAJARA,JALISCO,W1082,108,6150.0,S,108,SUC. JESUS,6150,D DIV RB OCCIDENTE,6135,O01 - GUADALAJARA,20.6955509,-103.3986312
1-145891-EQ,M,83150,HERMOSILLO,SONORA,W1803,180,6777.0,S,180,SUC. CENTRO OBREGON,6777,D DIV  RB NOROESTE,7101,NO05 - CD OBREGON,29.1070032,-110.9505022
1-238589-PG,M,27105,TORREON,COAHUILA DE ZARAGOZA,V0364,1676,9932.0,C,1676,SUC. PENOLES,9932,D DIV RB NORTE,8727,N09 - TORREON,25.596847,-103.4146007
1-665540-SA,F,4450,COYOACAN,CIUDAD DE MEXICO,V0216,690,4831.0,V,690,SUC. AVANTE,4831,D DIV RB METRO SUR,5215,MS07 - XOCHIMILCO,19.3353875,-99.1402828
1-658717-LG,M,47300,YAHUALICA DE GONZALEZ GAL,JALISCO,W1648,164,6150.0,C,164,SUC. YAHUALICA,6150,D DIV RB OCCIDENTE,6053,O05 - ALTOS JALISCO,21.1790507,-102.8851294
1-824897-HV,F,45060,ZAPOPAN,JALISCO,W4494,449,6150.0,V,449,SUC. PLAZA SUR,6150,D DIV RB OCCIDENTE,6056,O02 - GUADALAJARA,20.6418647,-103.4409468
1-310369-ZS,F,56540,IXTAPALUCA,MEXICO,W0995,99,9934.0,U,99,SUC. TORRE HSBC,9934,D DIV RB METRO NORTE,9764,MN02 - REFORMA,19.3281805,-98.9400673
1-675178-YT,M,45420,TONALA,JALISCO,W1198,119,6150.0,C,119,SUC. TLAQUEPAQUE,6150,D DIV RB OCCIDENTE,6049,O03 - GUADALAJARA,20.6036644,-103.2421861
1-396426-MH,M,11700,MIGUEL HIDALGO,CIUDAD DE MEXICO,V0076,52,9934.0,C,52,SUC. BOSQUES LOMAS,9934,D DIV RB METRO NORTE,5235,MN03 - SANTA FE,19.4062357,-99.24411
1-167283-UO,F,76060,QUERETARO,QUERETARO,V0285,259,9931.0,S,259,SUC. EJERCITO,9931,D DIV RB CENTRO,6607,C03 - QUERETARO,20.5957592,-100.3509967
1-392635-IQ,M,44670,GUADALAJARA,JALISCO,W1152,115,6150.0,C,115,SUC. SAN FELIPE,6150,D DIV RB OCCIDENTE,6056,O02 - GUADALAJARA,20.6820316,-103.3953784
1-237705-[G,M,45645,TLAJOMULCO DE ZUNIGA,JALISCO,Z8091,3809,6150.0,C,3809,SUC. SANTA ANITA (JAL),6150,D DIV RB OCCIDENTE,6049,O03 - GUADALAJARA,20.5432909,-103.4662735
1-849885-YZ,M,86930,BALANCAN,TABASCO,W3542,354,9610.0,C,354,SUC. BALANCAN,9610,D DIV RB PENINSULAR,9000,P02 - TABASCO,17.8144467,-91.5370144
1-662603-EU,M,57000,NEZAHUALCOYOTL,MEXICO,W0994,99,9934.0,S,99,SUC. TORRE HSBC,9934,D DIV RB METRO NORTE,9764,MN02 - REFORMA,19.3943312,-98.9916095
1-395102-AJ,M,57170,NEZAHUALCOYOTL,MEXICO,W0422,42,4831.0,C,42,SUC. AEROPUERTO SALA A,4831,D DIV RB METRO SUR,5226,MS10 - AEROPUERTO,19.4700939,-99.0502663
1-455697-NH,M,58070,MORELIA,MICHOACAN DE OCAMPO,V0158,300,6150.0,S,300,SUC. MORELIA CHAPULTEPEC,6150,D DIV RB OCCIDENTE,6526,O07 - MORELIA,19.687804,-101.1903306
1-744222-VF,F,72100,PUEBLA,PUEBLA,Z0108,3010,4831.0,S,3010,SUC. MANACAR,4831,D DIV RB METRO SUR,5212,MS08 - COYOACAN,19.1039169,-98.2213162
1-753828-WO,F,7600,GUSTAVO A MADERO,CIUDAD DE MEXICO,W0995,99,9934.0,C,99,SUC. TORRE HSBC,9934,D DIV RB METRO NORTE,9764,MN02 - REFORMA,19.5209317,-99.1602107
1-871191-LV,M,8300,IZTACALCO,CIUDAD DE MEXICO,W0064,6,4831.0,S,6,SUC. DONCELES,4831,D DIV RB METRO SUR,5202,MS02 - CENTRO,19.3994125,-99.121004
1-506927-QO,M,48350,PUERTO VALLARTA,JALISCO,W9402,940,6150.0,C,940,SUC. AEROPUERTO VALLARTA,6150,D DIV RB OCCIDENTE,6050,O04 -GUADALAJARA,20.617437,-105.2299067
1-605983-RE,F,86080,CENTRO,TABASCO,W4164,416,9610.0,C,416,SUC.PLAZA CATEDRAL,9610,D DIV RB PENINSULAR,9000,P02 - TABASCO,17.9884989,-92.9368497
1-402467-JR,M,97205,MERIDA,YUCATAN,Z0563,3056,9610.0,C,3056,SUC. CALLE SESENTA,9610,D DIV RB PENINSULAR,9308,P05 - PENINSULA,21.0115934,-89.6351833
1-433193-XT,F,45180,ZAPOPAN,JALISCO,Z0748,3074,6150.0,C,3074,SUC. SAN ISIDRO,6150,D DIV RB OCCIDENTE,6135,O01 - GUADALAJARA,20.7301906,-103.3621197
1-691932-IF,M,45160,ZAPOPAN,JALISCO,V0247,120,6150.0,C,120,SUC. PLAZA PATRIA,6150,D DIV RB OCCIDENTE,6049,O03 - GUADALAJARA,20.7124464,-103.3831334
1-448345-D\,M,58260,MORELIA,MICHOACAN DE OCAMPO,V0158,300,6150.0,C,300,SUC. MORELIA CHAPULTEPEC,6150,D DIV RB OCCIDENTE,6526,O07 - MORELIA,19.6926898,-101.1627035
1-236090-R[,M,10700,LA MAGDALENA CONTRERAS,CIUDAD DE MEXICO,V0086,59,4831.0,S,59,SUC. PLAZA INN,4831,D DIV RB METRO SUR,5212,MS08 - COYOACAN,19.3145048,-99.2250937
1-648601-TT,F,9810,IZTAPALAPA,CIUDAD DE MEXICO,X0061,1006,4831.0,S,1006,SUC. SECODAM,4831,D DIV RB METRO SUR,5212,MS08 - COYOACAN,19.3520938,-99.1100946
1-531805-UQ,M,91919,VERACRUZ,VERACRUZ DE IGNACIO DE LA LLAVE,V0457,446,9933.0,S,446,SUC.RUIZ CORTINEZ,9933,D DIV RB  SUR,5219,S05 - VERACRUZ,19.170405,-96.126747
1-156571-GE,M,72110,PUEBLA,PUEBLA,W3142,314,9933.0,C,314,SUC.LOS ANGELES,9933,D DIV RB  SUR,5218,S01 - PUEBLA,19.095248,-98.2309955
1-674967-PZ,F,45470,ACATIC,JALISCO,W1752,175,6150.0,C,175,SUC. ACATIC,6150,D DIV RB OCCIDENTE,6053,O05 - ALTOS JALISCO,20.7874791,-102.9131138
1-885072-HL,F,34166,DURANGO,DURANGO,V0065,220,9932.0,U,220,SUC. CENTRO DURANGO,9932,D DIV RB NORTE,7903,N11 - DURANGO,24.0046393,-104.6279889
1-627535-UP,M,6100,CUAUHTEMOC,CIUDAD DE MEXICO,Z8032,3803,9934.0,S,3803,SUC. PLAZA REFORMA,9934,D DIV RB METRO NORTE,9764,MN02 - REFORMA,19.4120868,-99.1703884
1-143871-WM,M,62180,CUERNAVACA,MORELOS,W9572,957,9932.0,C,957,SUC. SORIANA TAMPICO EJERCITO,9932,D DIV RB  SUR,8619,S09 - TAMPICO-VICTORIA,18.9316818,-99.254451
1-630031-A\,M,37260,LEON,GUANAJUATO,W2743,274,9931.0,C,274,SUC. CENTRO LEON,9931,D DIV RB CENTRO,6204,C01 - LEON,21.1264148,-101.6651806
1-567926-FQ,M,9578,IZTAPALAPA,CIUDAD DE MEXICO,W0998,99,9934.0,C,99,SUC. TORRE HSBC,9934,D DIV RB METRO NORTE,9764,MN02 - REFORMA,19.3683055,-99.0374003
1-571669-VQ,F,23040,LA PAZ,BAJA CALIFORNIA SUR,W1955,195,6777.0,S,195,SUC. ISABEL LA CATOLICA,6777,D DIV  RB NOROESTE,7213,NO07 - B.C.S,24.1363446,-110.3064638
1-404122-C[,M,14420,TLALPAN,CIUDAD DE MEXICO,V0657,594,9934.0,C,594,SUC. CONDESA,9934,D DIV RB METRO NORTE,5224,MN05 - CONDESA ROMA,19.2761586,-99.1827431
1-856626-EY,M,27010,TORREON,COAHUILA DE ZARAGOZA,V1052,811,9932.0,S,811,SUC. PLAZA CUATRO CAMINOS,9932,D DIV RB NORTE,8727,N09 - TORREON,25.5653961,-103.4224267
1-703679-IO,F,45410,TONALA,JALISCO,X1002,1100,9934.0,C,1100,SUC. AMERICAS OBSERVATORIO,9934,D DIV RB METRO NORTE,5224,MN05 - CONDESA ROMA,20.6467411,-103.221848
1-695887-OU,M,72570,PUEBLA,PUEBLA,W3168,316,9933.0,C,316,SUC. SAN MANUEL,9933,D DIV RB  SUR,5223,S02 - PUEBLA,19.008832,-98.1929188
1-341663-AC,M,66220,SAN PEDRO GARZA GARCIA,NUEVO LEON,W0314,31,4831.0,C,31,SUC. IZTAPALAPA,4831,D DIV RB METRO SUR,5212,MS08 - COYOACAN,25.6591085,-100.3681637
1-340897-Q\,F,45221,ZAPOPAN,JALISCO,Z8083,3808,6150.0,C,3808,SUC. SAO PAULO,6150,D DIV RB OCCIDENTE,6049,O03 - GUADALAJARA,20.727152,-103.541704
1-857761-FN,F,3510,BENITO JUAREZ,CIUDAD DE MEXICO,W0448,44,4831.0,D,44,SUC. INSURGENTES NAPOLES,4831,D DIV RB METRO SUR,5231,MS03 - FELIX CUEVAS,19.3943501,-99.1337982
1-836484-PZ,F,9780,IZTAPALAPA,CIUDAD DE MEXICO,V0003,835,4831.0,C,835,SUC. PLAZA DE LA CONSTITUCION,4831,D DIV RB METRO SUR,5202,MS02 - CENTRO,19.3182,-99.061092
1-100527-HD,M,48150,CUAUTLA,JALISCO,W1702,170,6150.0,C,170,SUC. AYUTLA,6150,D DIV RB OCCIDENTE,6044,O06 - COLIMA,20.2017375,-104.3976653
1-153115-CO,M,39390,ACAPULCO DE JUAREZ,GUERRERO,V0548,76,9933.0,C,76,SUC. ACAPULCO CENTRO,9933,D DIV RB  SUR,5225,S08 - GUERRERO,16.8374297,-99.8976918
1-464171-JH,F,21960,MEXICALI,BAJA CALIFORNIA,V1034,1973,6777.0,S,1973,SUC. CATAVINA,6777,D DIV  RB NOROESTE,7611,NO03 - MEXICALI,32.6357703,-114.850705
1-611892-GL,F,72760,SAN PEDRO CHOLULA,PUEBLA,V0133,918,9933.0,C,918,SUC. SEGMENTO PUEBLA SUR,9933,D DIV RB  SUR,5218,S01 - PUEBLA,19.0630062,-98.3083806
1-487159-CJ,F,54030,TLALNEPANTLA,MEXICO,W0138,13,9934.0,S,13,SUC. TLALNEPANTLA,9934,D DIV RB METRO NORTE,5238,MN07 - CUAUTITLAN,19.5528519,-99.20147
1-362913-PD,M,50160,TOLUCA,MEXICO,W0848,84,9934.0,C,84,SUC. TOLUCA VILLADA,9934,D DIV RB METRO NORTE,5207,MN01 - TOLUCA,19.2808646,-99.6259609
1-432637-IQ,F,14600,TLALPAN,CIUDAD DE MEXICO,W5632,563,4831.0,C,563,SUC. PLAZA SUR,4831,D DIV RB METRO SUR,5214,MS05 - PEDREGAL,19.2792279,-99.1424649
1-804087-AU,M,86153,CENTRO,TABASCO,W4164,416,9610.0,C,416,SUC.PLAZA CATEDRAL,9610,D DIV RB PENINSULAR,9000,P02 - TABASCO,17.8704474,-93.0715476
1-840909-RM,M,67190,GUADALUPE,NUEVO LEON,W2522,252,9932.0,C,252,SUC. PLAZA FIESTA ANAHUAC,9932,D DIV RB NORTE,8039,N03 - MONTERREY 3,25.659524,-100.1817049
1-763372-SX,M,45070,ZAPOPAN,JALISCO,W1803,180,6777.0,S,180,SUC. CENTRO OBREGON,6777,D DIV  RB NOROESTE,7101,NO05 - CD OBREGON,20.6430284,-103.4238079
1-280453-ST,M,47300,YAHUALICA DE GONZALEZ GAL,JALISCO,W1583,158,6150.0,C,158,SUC. TEPATITLAN,6150,D DIV RB OCCIDENTE,6053,O05 - ALTOS JALISCO,21.1790507,-102.8851294
1-786822-EC,F,72150,PUEBLA,PUEBLA,Z0323,3032,9933.0,S,3032,SUC. REFORMA CENTRO,9933,D DIV RB  SUR,5223,S02 - PUEBLA,19.0708658,-98.2556977
1-948037-Z\,M,56300,ATENCO,MEXICO,W0148,14,9934.0,C,14,SUC. TEXCOCO,9934,D DIV RB METRO NORTE,5209,MN09 - ECATEPEC,19.5576345,-98.9138527
1-387541-LO,M,1530,ALVARO OBREGON,CIUDAD DE MEXICO,Z9393,3939,4831.0,C,3939,SUC. TELEVISA SAN ANGEL,4831,D DIV RB METRO SUR,5230,MS01 - ALTAVISTA,19.3605346,-99.2478098
1-950521-TG,F,80016,CULIACAN,SINALOA,Z9762,3976,6777.0,C,3976,TRES RIOS,6777,D DIV  RB NOROESTE,7103,NO09 - SINALOA SUR,24.8388469,-107.3845818
1-301476-SJ,F,47000,SAN JUAN DE LOS LAGOS,JALISCO,W1552,155,6150.0,C,155,SUC. SAN JUAN DE LOS LAGOS,6150,D DIV RB OCCIDENTE,6053,O05 - ALTOS JALISCO,21.2465327,-102.3334216
1-998712-QW,M,47600,TEPATITLAN DE MORELOS,JALISCO,W1182,118,6150.0,S,118,SUC. PZA. DEL SOL,6150,D DIV RB OCCIDENTE,6049,O03 - GUADALAJARA,20.8171289,-102.7618161
1-364757-UL,F,6700,CUAUHTEMOC,CIUDAD DE MEXICO,Z5578,3557,9934.0,C,3557,SUC. REFORMA PALMERA,9934,D DIV RB METRO NORTE,9764,MN02 - REFORMA,19.4182759,-99.1634927
1-474292-VI,M,56230,TEXCOCO,MEXICO,W0476,47,4831.0,C,47,SUC. ZARAGOZA,4831,D DIV RB METRO SUR,5226,MS10 - AEROPUERTO,19.4970832,-98.8671372
1-579891-N\,F,45135,ZAPOPAN,JALISCO,W6933,693,6150.0,C,693,SUC. MERCADO DEL MAR,6150,D DIV RB OCCIDENTE,6135,O01 - GUADALAJARA,20.7606173,-103.3864607
1-199991-CA,M,53290,NAUCALPAN,MEXICO,V0426,587,9934.0,C,587,SUC. JARDINES DE SAN MATEO,9934,D DIV RB METRO NORTE,5205,MN04 - SATELITE,19.4854849,-99.265245
1-863842-TM,M,35700,NAZAS,DURANGO,X0283,1028,9932.0,C,1028,SUC. CD. NAZAS,9932,D DIV RB NORTE,7903,N11 - DURANGO,25.226719,-104.114479
1-786695-TH,F,44860,GUADALAJARA,JALISCO,W1009,100,6150.0,C,100,SUC. OFICINA CENTRAL GUADALAJA,6150,D DIV RB OCCIDENTE,6049,O03 - GUADALAJARA,20.6444924,-103.3075953
1-125714-RN,M,14640,TLALPAN,CIUDAD DE MEXICO,V0094,88,4831.0,C,88,SUC. CUAUTLA,4831,D DIV RB METRO SUR,5814,MS06 - MORELOS,19.2738023,-99.1595519
1-255023-RC,F,86150,CENTRO,TABASCO,W3511,351,9610.0,C,351,SUC.TAMULTE,9610,D DIV RB PENINSULAR,9000,P02 - TABASCO,17.9710816,-92.9573552
1-775844-EF,M,2150,AZCAPOTZALCO,CIUDAD DE MEXICO,W0472,47,4831.0,S,47,SUC. ZARAGOZA,4831,D DIV RB METRO SUR,5226,MS10 - AEROPUERTO,19.4940677,-99.1952169
1-415924-JQ,M,2600,AZCAPOTZALCO,CIUDAD DE MEXICO,V0135,41,9934.0,S,41,SUC. REFORMA,9934,D DIV RB METRO NORTE,9764,MN02 - REFORMA,19.4758773,-99.1522855
1-866020-KE,F,4899,COYOACAN,CIUDAD DE MEXICO,W6903,690,4831.0,S,690,SUC. AVANTE,4831,D DIV RB METRO SUR,5215,MS07 - XOCHIMILCO,19.3094797,-99.1341903
1-828390-W\,M,14640,TLALPAN,CIUDAD DE MEXICO,W0998,99,9934.0,S,99,SUC. TORRE HSBC,9934,D DIV RB METRO NORTE,9764,MN02 - REFORMA,19.2738023,-99.1595519
1-339538-OM,M,23060,LA PAZ,BAJA CALIFORNIA SUR,W1958,195,6777.0,C,195,SUC. ISABEL LA CATOLICA,6777,D DIV  RB NOROESTE,7213,NO07 - B.C.S,24.142361,-110.3284853
1-893671-DE,M,31720,NUEVO CASAS GRANDES,CHIHUAHUA,W2063,206,6777.0,C,206,SUC. 5 MAYO,6777,D DIV  RB NOROESTE,7815,NO12 - CD JUAREZ,30.4030558,-107.9222282
1-890991-AX,M,11000,MIGUEL HIDALGO,CIUDAD DE MEXICO,V8155,3006,9934.0,C,3006,SUC. LOMAS PALMAS,9934,D DIV RB METRO NORTE,5235,MN03 - SANTA FE,19.4216613,-99.2256635
1-918737-OH,F,14240,TLALPAN,CIUDAD DE MEXICO,W0633,63,4831.0,S,63,SUC. HOLBEIN,4831,D DIV RB METRO SUR,5231,MS03 - FELIX CUEVAS,19.2736756,-99.2149965
1-690453-YZ,F,54050,TLALNEPANTLA,MEXICO,W0652,65,9934.0,C,65,SUC. MANUEL IZAGUIRRE,9934,D DIV RB METRO NORTE,5205,MN04 - SATELITE,19.5326115,-99.2261899
1-735845-TR,M,86930,BALANCAN,TABASCO,W3541,354,9610.0,C,354,SUC. BALANCAN,9610,D DIV RB PENINSULAR,9000,P02 - TABASCO,17.8144467,-91.5370144
1-212665-GY,M,72160,PUEBLA,PUEBLA,V0133,918,9933.0,C,918,SUC. SEGMENTO PUEBLA SUR,9933,D DIV RB  SUR,5218,S01 - PUEBLA,19.0553165,-98.2385992
1-153754-HR,F,54150,TLALNEPANTLA DE BAZ,MEXICO,W0515,51,9934.0,S,51,SUC. VALLE DORADO,9934,D DIV RB METRO NORTE,5238,MN07 - CUAUTITLAN,19.5350649,-99.1734881
1-660553-NG,M,48700,EL LIMON,JALISCO,V0332,161,6150.0,C,161,SUC. EL GRULLO,6150,D DIV RB OCCIDENTE,6044,O06 - COLIMA,19.8266733,-104.1594101
1-528518-DV,M,72550,PUEBLA,PUEBLA,V0370,1108,9933.0,C,1108,SUC. HUEXOTITLA,9933,D DIV RB  SUR,5223,S02 - PUEBLA,19.0122714,-98.2059901
1-475413-NZ,F,44950,GUADALAJARA,JALISCO,X6904,1690,6150.0,C,1690,SUC. SORIANA CORDILLERAS,6150,D DIV RB OCCIDENTE,6135,O01 - GUADALAJARA,20.6398428,-103.3858139
1-732805-[L,F,53200,NAUCALPAN,MEXICO,W5873,587,9934.0,C,587,SUC. JARDINES DE SAN MATEO,9934,D DIV RB METRO NORTE,5205,MN04 - SATELITE,19.4924562,-99.2716199
1-590974-TF,F,45645,TLAJOMULCO DE ZUNIGA,JALISCO,W1293,129,6150.0,C,129,SUC. MARIANO OTERO,6150,D DIV RB OCCIDENTE,6049,O03 - GUADALAJARA,20.5432909,-103.4662735
1-684427-CV,M,1790,ALVARO OBREGON,CIUDAD DE MEXICO,X1572,1157,4831.0,C,1157,SUC. TIZAPAN SAN ANGEL,4831,D DIV RB METRO SUR,5230,MS01 - ALTAVISTA,19.3436777,-99.2054645
1-630092-[V,M,6700,CUAUHTEMOC,CIUDAD DE MEXICO,X9204,1920,9934.0,C,1920,SUC. COLIMA,9934,D DIV RB METRO NORTE,5224,MN05 - CONDESA ROMA,19.4182759,-99.1634927
1-120391-WN,F,22794,ENSENADA,BAJA CALIFORNIA,W1372,137,6777.0,S,137,SUC. ENSENADA CENTRO,6777,D DIV  RB NOROESTE,7489,NO02 - PACIFICO NORTE,31.7263543,-116.7192424
1-589461-TH,M,44298,GUADALAJARA,JALISCO,W1084,108,6150.0,S,108,SUC. JESUS,6150,D DIV RB OCCIDENTE,6135,O01 - GUADALAJARA,20.7073416,-103.3379753
1-899977-LY,F,15100,VENUSTIANO CARRANZA,CIUDAD DE MEXICO,W0998,99,9934.0,S,99,SUC. TORRE HSBC,9934,D DIV RB METRO NORTE,9764,MN02 - REFORMA,19.4325644,-99.1233062
1-676756-ZE,M,47170,SAN JULIAN,JALISCO,W1653,165,6150.0,C,165,SUC. SAN JULIAN,6150,D DIV RB OCCIDENTE,6053,O05 - ALTOS JALISCO,21.0086847,-102.1831758
1-702562-DS,M,88275,NUEVO LAREDO,TAMAULIPAS,W8558,855,9932.0,C,855,SUC. REFORMA (NVO. LAREDO),9932,D DIV RB NORTE,8712,N08 - NUEVO LAREDO,27.4419037,-99.519087
1-127174-YS,F,29066,TUXTLA GUTIERREZ,CHIAPAS,V0475,401,9610.0,S,401,SUC.PLAZA CRYSTAL,9610,D DIV RB PENINSULAR,9105,P03 - CHIAPAS,16.7402694,-93.1262183
1-133309-NC,F,28860,MANZANILLO,COLIMA,W1848,184,6150.0,D,184,SUC. SANTIAGO COLIMA,6150,D DIV RB OCCIDENTE,6044,O06 - COLIMA,19.119007,-104.356248
1-979084-CP,F,86800,TEAPA,TABASCO,V0537,357,9610.0,S,357,SUC. TEAPA,9610,D DIV RB PENINSULAR,9000,P02 - TABASCO,17.5491628,-92.9529082
1-230696-FZ,F,53830,NAUCALPAN DE JUAREZ,MEXICO,V0516,94,9934.0,S,94,SUC. ZONA INDUSTRIAL,9934,D DIV RB METRO NORTE,5207,MN01 - TOLUCA,19.431924,-99.2497653
1-112855-HP,M,44130,GUADALAJARA,JALISCO,V0327,3804,6150.0,C,3804,SUC. ANDARES,6150,D DIV RB OCCIDENTE,6049,O03 - GUADALAJARA,20.6707941,-103.384791
1-832981-FQ,F,48740,EL GRULLO,JALISCO,W1614,161,6150.0,S,161,SUC. EL GRULLO,6150,D DIV RB OCCIDENTE,6044,O06 - COLIMA,19.8087296,-104.2147854
1-124929-TK,M,3100,BENITO JUAREZ,CIUDAD DE MEXICO,V0117,93,4831.0,S,93,SUC. M.ANGEL DE QUEVEDO,4831,D DIV RB METRO SUR,5212,MS08 - COYOACAN,19.3845688,-99.1698933
1-294557-LO,M,66634,APODACA,NUEVO LEON,V8171,1454,9932.0,C,1454,SUC. FIESTA SAN AGUSTIN,9932,D DIV RB NORTE,8003,N02 - MONTERREY 2,25.7380655,-100.1965237
1-834597-GJ,F,45070,ZAPOPAN,JALISCO,V0280,3558,6150.0,S,3558,SUC.PLAZA GALERIAS GUADALAJARA,6150,D DIV RB OCCIDENTE,6135,O01 - GUADALAJARA,20.6430284,-103.4238079
1-195239-XT,M,86930,BALANCAN,TABASCO,W3548,354,9610.0,C,354,SUC. BALANCAN,9610,D DIV RB PENINSULAR,9000,P02 - TABASCO,17.8144467,-91.5370144
1-478229-UW,F,90114,TLAXCALA,TLAXCALA,V0040,314,9933.0,C,314,SUC.LOS ANGELES,9933,D DIV RB  SUR,5218,S01 - PUEBLA,19.3008975,-98.2291609
1-576218-EI,M,6800,CUAUHTEMOC,CIUDAD DE MEXICO,V0177,3006,9934.0,C,3006,SUC. LOMAS PALMAS,9934,D DIV RB METRO NORTE,5235,MN03 - SANTA FE,19.416487,-99.138495
1-614885-GN,M,10400,LA MAGDALENA CONTRERAS,CIUDAD DE MEXICO,W5592,559,4831.0,C,559,SUC. LUIS CABRERA,4831,D DIV RB METRO SUR,5214,MS05 - PEDREGAL,19.3171009,-99.225305
1-775546-BG,F,73160,HUAUCHINANGO,PUEBLA,W3272,327,9933.0,C,327,SUC. HUAUCHINANGO PUEBLA,9933,D DIV RB  SUR,8611,S06 - POZA RICA,20.1762623,-97.9945056
1-164202-PH,M,52929,ATIZAPAN DE ZARAGOZA,MEXICO,V0658,7,9934.0,C,7,SUC. PARQUES POLANCO,9934,D DIV RB METRO NORTE,9764,MN02 - REFORMA,19.6053079,-99.2277908
1-152416-IZ,M,3100,BENITO JUAREZ,CIUDAD DE MEXICO,V0473,835,4831.0,C,835,SUC. PLAZA DE LA CONSTITUCION,4831,D DIV RB METRO SUR,5202,MS02 - CENTRO,19.3845688,-99.1698933
1-661042-JC,M,4369,COYOACAN,CIUDAD DE MEXICO,W0283,28,4831.0,C,28,SUC. SAN ANGEL,4831,D DIV RB METRO SUR,5212,MS08 - COYOACAN,19.3329073,-99.1712358
1-927137-ME,F,7870,GUSTAVO A MADERO,CIUDAD DE MEXICO,W0345,34,9934.0,C,34,SUC. VALLEJO,9934,D DIV RB METRO NORTE,5206,MN06 - LINDAVISTA,19.4748179,-99.1317074
1-907408-BG,F,47000,SAN JUAN DE LOS LAGOS,JALISCO,W1552,155,6150.0,C,155,SUC. SAN JUAN DE LOS LAGOS,6150,D DIV RB OCCIDENTE,6053,O05 - ALTOS JALISCO,21.2465327,-102.3334216
1-290695-CL,M,86039,CENTRO,TABASCO,V0405,347,9610.0,S,347,SUC. ATASTA,9610,D DIV RB PENINSULAR,9000,P02 - TABASCO,18.056127,-92.8930277
1-907127-OX,M,1290,ALVARO OBREGON,CIUDAD DE MEXICO,X0061,1006,4831.0,C,1006,SUC. SECODAM,4831,D DIV RB METRO SUR,5212,MS08 - COYOACAN,19.3798616,-99.221941
1-812243-AU,M,52788,HUIXQUILUCAN,MEXICO,V0013,1959,9934.0,C,1959,SUC. GRANADA INTERLOMAS,9934,D DIV RB METRO NORTE,5235,MN03 - SANTA FE,19.3928248,-99.277147
1-405541-[H,M,57400,NEZAHUALCOYOTL,MEXICO,W4343,434,9934.0,S,434,SUC. LIVERPOOL,9934,D DIV RB METRO NORTE,5224,MN05 - CONDESA ROMA,19.4190008,-99.0548832
1-368722-BD,F,48740,EL GRULLO,JALISCO,W1611,161,6150.0,C,161,SUC. EL GRULLO,6150,D DIV RB OCCIDENTE,6044,O06 - COLIMA,19.8087296,-104.2147854
1-924957-E\,F,5120,CUAJIMALPA DE MORELOS,CIUDAD DE MEXICO,W0722,72,9934.0,C,72,SUC. INTERLOMAS,9934,D DIV RB METRO NORTE,5235,MN03 - SANTA FE,19.3920486,-99.2488971
1-408621-I[,M,11220,MIGUEL HIDALGO,CIUDAD DE MEXICO,V8155,3026,9934.0,C,3026,SUC. LOMAS DE TECAMACHALCO,9934,D DIV RB METRO NORTE,5235,MN03 - SANTA FE,19.447868,-99.2185006
1-554291-Y\,F,72480,PUEBLA,PUEBLA,W3163,316,9933.0,S,316,SUC. SAN MANUEL,9933,D DIV RB  SUR,5223,S02 - PUEBLA,19.0034196,-98.249552
1-221510-ZN,M,44440,GUADALAJARA,JALISCO,W1261,126,6150.0,S,126,SUC. PLAZA LAS TORRES,6150,D DIV RB OCCIDENTE,6049,O03 - GUADALAJARA,20.6419884,-103.3446296
1-549214-YL,M,1900,ALVARO OBREGON,CIUDAD DE MEXICO,W5561,556,4831.0,C,556,SUC. PEDREPLAZA,4831,D DIV RB METRO SUR,5214,MS05 - PEDREGAL,19.3323544,-99.2040742
1-775294-PS,F,37150,LEON,GUANAJUATO,W4149,414,9931.0,C,414,SUC. ARBIDE,9931,D DIV RB CENTRO,6204,C01 - LEON,21.1542379,-101.7101975
